id,name,lat,lon
584204204e65fad6a7709136,"Kodiak, Alaska",57.426470239515034,-152.36629
640a2088e92030152096257f,Akbar,57.6021,-152.1645
5842041f4e65fad6a7708e22,Fossil Beach,57.418,-152.361
5842041f4e65fad6a7708e23,Cannon Beach,59.495,-139.787
640a2096606c453200a8ef14,Good Rats,57.3734,-135.767
640a2098e9203068129629df,Sealion Cove,57.3013,-135.831
640a2090e92030fc9896282e,Port Mary,57.1672,-135.755
640a209299dd446b2efb7da7,Kai's Place,57.0624,-135.844
640a209599dd448fd8fb7e6a,Red Tree Reef,57.0492,-135.854
640a20934eb375e3cc8ca933,Neva Bay,57.0399,-135.849
640a208f4eb375bc348ca82e,Shoals Reef/Wall,57.0101,-135.65
640a208db6d7697208498077,Shoals Point,57.0099,-135.634
640a208a99dd44e1e6fb7b9b,Low Island,57.0085,-135.612
5842041f4e65fad6a7708e24,The Wall,57.066,-135.393
640a209a606c45f7e4a8efe1,"Sandy Beach - Sitka, Alaska",57.0754,-135.373
5842041f4e65fad6a7708e12,"Kamalino, Niihau",21.812,-160.246
5842041f4e65fad6a7708b31,Pakala,21.936,-159.652
584204214e65fad6a7709bde,PKs/Centers,21.880277061272192,-159.47478
5842041f4e65fad6a7708b30,Poipu Outer Reef,21.872,-159.462
5842041f4e65fad6a7708df3,Mana Point,22.013,-159.785
5842041f4e65fad6a7708df1,Polihale,22.101,-159.747
5842041f4e65fad6a7708b2d,Ha'Ena Bay (Cannons/Tunnels),22.225,-159.567
5842041f4e65fad6a7708b2c,Hanalei Bay,22.216,-159.502
640f37d874a71b18f7294fe3,Kauapea Beach,22.2242,-159.4098
5842041f4e65fad6a7708b2f,Anahola Bay,22.148,-159.301
5a9db1d0a7eda2001a6aad6b,Kealia,22.096150401123737,-159.30328433528325
640f37ef326c179b795b7627,Kalapaki Beach,21.9600952,-159.35027
640f37e374a71b7f86295289,Shipwrecks,21.874,-159.4372
5842041f4e65fad6a7708b3b,Kaena Point,21.576,-158.282
5842041f4e65fad6a7708df8,Mokuleia,21.586,-158.191
5842041f4e65fad6a7708df5,Hale'iwa,21.597,-158.109
584204204e65fad6a7709057,Pua'ena Point,21.604,-158.109
5842041f4e65fad6a7708898,Laniakea,21.62,-158.088
5842041f4e65fad6a7708896,Hultin's,21.622,-158.087
5842041f4e65fad6a7708897,Jocko's,21.623,-158.085
5842041f4e65fad6a7708899,Chun's,21.625,-158.083
5842041f4e65fad6a7708895,Waimea Bay,21.643,-158.067
5842041f4e65fad6a7708893,Log Cabins,21.65870453806827,-158.06058
5842041f4e65fad6a7708892,Rockpile,21.662,-158.057
5842041f4e65fad6a7708894,Off-The-Wall,21.66203493640557,-158.05495
5842041f4e65fad6a7708891,Backdoor,21.665,-158.054
5842041f4e65fad6a7708890,Pipeline,21.66522,-158.0526
653b83b84f42f85b45263e14,Ehukai Beach Park,21.66558,-158.05185
6542334204e69116d57b4d9e,Pupukea,21.66771,-158.04967
5842041f4e65fad6a770888f,Chambers,21.668,-158.05
5842041f4e65fad6a770888e,Rocky Point,21.670550036401,-158.0482
5842041f4e65fad6a770888d,Sunset Beach,21.679,-158.042
644307ceabaf74e0cd52271f,Freddieland,21.682872,-158.03326
5842041f4e65fad6a7708df4,Velzyland,21.685,-158.033
5842041f4e65fad6a7708df2,Turtle Bay West,21.705402859819525,-158.00333
584204204e65fad6a7709218,Turtle Bay East,21.707393337051556,-157.99598
6418e2caa34c33681818a7a9,Laie Beach Park,21.6312,-157.921
5842041f4e65fad6a7708dfb,Kahuku,21.679,-157.935
5842041f4e65fad6a7708dfa,Crouching Lion,21.566,-157.861
5c3fc10b1135b1000195fa99,North Beach,21.45582460919004,-157.74446725845337
60428c564d813d3a2bb40d2c,Castles,21.420918,-157.74242
6418dc67a34c3349c417505f,Kailua,21.41,-157.74
5842041f4e65fad6a7708df7,Popoia Island Kailua,21.401,-157.718
6418e2be970272062987bc46,Lanikai Beach,21.393,-157.7151
5842041f4e65fad6a7708b3c,Makapu'u,21.31110306220024,-157.6590697786346
5842041f4e65fad6a7708df6,Sandy Beach,21.284,-157.673
5842041f4e65fad6a7708dfe,Barbers Point,21.295,-158.107
601b20b05f02a99e8973f5b7,White Plains Beach,21.3023,-158.0454
6466ad9b1b12f5c98eb72499,The LineUp at Wai Kai,21.308209,-158.04112
5842041f4e65fad6a7708e00,Ewa Beach,21.302,-158.002
5842041f4e65fad6a7708e30,Sand Island,21.299,-157.875
5a983b55ab43c7001a4129d9,Kewalos,21.287874987990282,-157.8591
5842041f4e65fad6a770889c,South Shore - Ala Moana Park,21.286357895152136,-157.8515
5842041f4e65fad6a7708b42,Ala Moana Bowls,21.281416779283845,-157.8457
5842041f4e65fad6a7708b39,Rockpiles,21.280537020769913,-157.84107
5842041f4e65fad6a7708b38,Kaiser's,21.277,-157.841
5842041f4e65fad6a7708b3a,Four's,21.2745,-157.8395
5842041f4e65fad6a7708b3d,Three's,21.276618032562773,-157.83386
5842041f4e65fad6a7708b32,Populars,21.272,-157.832
5842041f4e65fad6a7708b35,Canoes,21.27394674233747,-157.82777
584204204e65fad6a7709148,Waikiki Beach,21.274598513189574,-157.82678
5842041f4e65fad6a7708b36,Queen's,21.273658410008455,-157.8263
6335eab2d305aa6b0692cd5f,The Wall,21.271082,-157.82401
5842041f4e65fad6a7708b33,Publics,21.26841992117695,-157.82329
5a987de6a7eda2001a6aa93b,Waikiki - Kapiolani Park,21.267080507181625,-157.82360360082407
6335ed3996ac630a21de90d7,Old Man's,21.25996,-157.82482
6335ebea693c3404e2a7b850,Tongg's,21.25696,-157.82366
5842041f4e65fad6a77088a2,Diamond Head,21.252,-157.805
5842041f4e65fad6a7708b34,Black Point,21.25460513357954,-157.79432
5842041f4e65fad6a7708dfc,Yokohama Bay / Keawa’ula ,21.544,-158.243
5842041f4e65fad6a7708dfd,Makaha,21.475,-158.227
5842041f4e65fad6a7708dff,Ma'ili,21.417,-158.185
601b285ce17c8b3c17b65e2c,Tracks,21.3596,-158.133
5842041f4e65fad6a7708e05,Kepuhi Bay,21.189,-157.249
5842041f4e65fad6a7708e13,Halena Beach,21.085,-157.245
5842041f4e65fad6a7708e03,Kawa,21.201,-157.152
5842041f4e65fad6a7708e01,Kaunakakai (The Wharf),21.079,-157.031
5842041f4e65fad6a7708e04,Kalaupapa,21.198,-156.984
5842041f4e65fad6a7708e02,Halawa Bay,21.159,-156.736
5842041f4e65fad6a7708de4,Honolua Bay,21.024,-156.642
6418dd1193265b016717814b,Little Makaha,20.9972,-156.668
6418dc919a43c4dc6136f3cc,Windmills,21.0239,-156.628
5842041f4e65fad6a7708de7,Honokohau Bay,21.024,-156.61
6418dd176478f05439f99dad,Pavilions,20.9374,-156.356
640f37b743c1fbf8fd4386a1,S Turns,20.9673218,-156.68296
5842041f4e65fad6a7708de3,Rainbows,20.948,-156.693
6328ea2e553788088a2ebfdd,Ka'anapali Point,20.917672,-156.69711
640f37c26d5ecc82715b1e36,Launiupoko,20.84204,-156.65284
640f37ab326c174fb15b6718,Oneuli Beach,20.6412,-156.4462
640f37a038476ebadad58891,Makena Beach,20.632583,-156.44906
6328ed0ed05d38031be2733c,Waiehu Beach,20.917024,-156.49129
5842041f4e65fad6a7708de6,Kahului Harbor,20.904,-156.463
5842041f4e65fad6a7708de5,Kanaha,20.905,-156.442
584204204e65fad6a770999d,Tavares Bay,20.922,-156.374
5842041f4e65fad6a7708de8,Ho'okipa,20.936,-156.359
5842041f4e65fad6a7708de9,Peahi (Jaws),20.945,-156.298
5842041f4e65fad6a7708deb,Honomanu Bay,20.866,-156.166
5842041f4e65fad6a7708dea,Hana Bay,20.76,-155.983
5842041f4e65fad6a7708b37,Lahaina Harbor - Breakwall,20.869,-156.679
5842041f4e65fad6a7708de0,Olowalu,20.808,-156.624
64bbf6d76914b76a8170b24d,Ukumehame,20.795589300073612,-156.58179
5842041f4e65fad6a7708da5,Ma'alaea Harbor,20.791,-156.509
5842041f4e65fad6a7708de1,The Cove,20.728,-156.453
5842041f4e65fad6a7708b2a,Little Beach,20.63474,-156.45211
5842041f4e65fad6a7708b2b,Dumps,20.613,-156.438
5842041f4e65fad6a7708de2,La Perouse Bay,20.591,-156.415
5842041f4e65fad6a7708e07,Pohakuloa,20.931,-156.997
5842041f4e65fad6a7708e06,Kaiolohia Bay/Shipwreck Beach,20.918,-156.901
5842041f4e65fad6a7708e18,Lopa Beach,20.804,-156.807
5842041f4e65fad6a7708e14,Manele Bay,20.736,-156.894
5842041f4e65fad6a770889e,Kawaihae,20.029,-155.831
5842041f4e65fad6a7708def,Hapuna Bay,19.993,-155.827
5842041f4e65fad6a7708ded,Pinetrees,19.695,-156.046
5e502d5939f578f30180d591,Kaiwi Point,19.658207410571208,-156.03269406981858
63054c33457a151d9cc7d44e,Old Kona Airport,19.643194,-156.01492
5e5034d3e3517f024160d922,Honl's,19.628229345976486,-155.98827
5842041f4e65fad6a770889d,Banyans,19.606,-155.978
5e5033c97818a8bcb2976f75,Lyman's,19.602998314865218,-155.97515
5842041f4e65fad6a7708dee,Magic Sands Beach,19.594,-155.973
5842041f4e65fad6a7708e19,Kahalu'u Bay,19.581,-155.969
640f37cd43c1fb0add438b4e,Pohue Bay Beach,19.0106,-155.7974
5842041f4e65fad6a7708df0,South Point,18.91,-155.678
62edbf02cd146e464e382b97,Honokohau Beach,19.67443,-156.02707
5842041f4e65fad6a7708e15,Kolekole,19.884,-155.117
5842041f4e65fad6a7708dec,Honoli'i,19.756,-155.09
5842041f4e65fad6a7708e16,Pohoiki,19.456,-154.842
640f37683554699ba3bf406f,Maqai,-16.8171,-179.7834
640f3a5938476e82b9d6246d,Lighthouse (Tongatapu),-21.0615,-175.33
5842041f4e65fad6a7708e32,Motels,-21.066,-175.333
640f3a6f43c1fb7bef4421e8,Fishtraps,-21.0668,-175.336
640f3a4e326c174f945bfe8e,The Bowl (Tongatapu),-21.0724,-175.341
640f3a6438476e358fd626da,Corners,-21.0793,-175.346
640f3a38355469d947bfe18c,The Peak (tongatapu),-21.0836,-175.35
640f3a43326c17c6855bfc62,The Pass,-21.0922,-175.359
584204204e65fad6a77099b4,The Leap,-13.667,-172.648
584204204e65fad6a77099b6,Salailua Right,-13.716,-172.6
584204204e65fad6a77099b5,Salailua Left,-13.718,-172.599
584204204e65fad6a77099b7,Aganoa,-13.776,-172.288
640f369e7966c39e5c69950a,Matareva Beach,-13.9912,-171.9329
584204204e65fad6a77099b8,Salamumu,-13.998,-171.922
640f36887966c346f669902a,Special K,-14.0175,-171.873
640f369374a71b77392906b5,Pebbles,-14.0072,-171.848
584204204e65fad6a77099b1,Coconuts,-14.022,-171.795
584204204e65fad6a77099ba,Inner Siumu,-14.018,-171.787
584204204e65fad6a77099bf,Outer Siumu,-14.024,-171.784
584204204e65fad6a77099af,Boulders,-14.04,-171.772
584204204e65fad6a77099bb,Devils Island,-14.053,-171.692
640f38947966c3fa706a061e,Nu'usafee Island,-14.0504,-171.69
640f389f326c174bbc5b9e1f,Tafatafa,-14.0479,-171.686
584204204e65fad6a77099ad,Salani Right,-14.043,-171.617
640f367cd19c66f13d78bafe,SoloSolos,-13.8691,-171.641
584204204e65fad6a77099b0,Salani Left,-14.044,-171.612
584204204e65fad6a77099b9,Aufaga Village,-14.044,-171.523
640f367138476e7217d543f6,Waterfalls,-13.8617,-171.665
584204204e65fad6a77099ac,Laulii,-13.858,-171.687
584204204e65fad6a77099a8,Tiavea Bay,-13.97,-171.467
640f38b5d19c665d44793afa,Poloa Bay,-14.3156,-170.837
640f38aa43c1fb536243bce6,Amanave Bay,-14.3274,-170.833
640f394543c1fb16b543de65,Nua,-14.3307,-170.81
640f38c0326c176fcc5ba58c,Asili Point,-14.3359,-170.798
640f39197966c352326a23f6,Sliding Rock,-14.3593,-170.783
640f38cb355469b8fabf8fe4,Nu'uuli,-14.3203,-170.697
640f393ad19c66f0bb795818,Faganeanea,-14.3043,-170.687
640f38d6d19c6670fc7942a0,Fatuuli Rock,-14.2988,-170.675
640f38e13554693e74bf9531,Coral Heads,-14.2913,-170.675
640f38ecd19c667b73794775,Lauli'ituai,-14.2914,-170.652
640f38f874a71bf66a29909d,Liea Point,-14.282,-170.608
640f390235546950babf9c6d,Amouli,-14.2767,-170.581
640f392443c1fb0f4243d802,Alao,-14.2601,-170.559
640f392f74a71bfa38299c9a,Tula,-14.2513,-170.563
640f390dd19c669b25794e95,Aunu'u,-14.287,-170.564
640f3853326c175a675b8c07,Golf Course (Socials),-21.2077,-159.827
640f3873326c17facc5b93fb,Matai Wreck,-21.2036,-159.775
640f388974a71b61a92977ad,Club Raro,-21.2013,-159.756
640f387e7966c3e0996a013b,Norrie Park,-21.2246,-159.731
640f3868326c173e4a5b91a5,Avana,-21.2445,-159.724
633e09f5b438c03f0dd3dc3b,Avaavaroa Passage,-21.2718,-159.78
640f385e326c17bf9f5b8f11,Rutaki Passage,-21.2654,-159.805
640f39f5326c17a6385be8ed,Pai-Pai,-16.6667,-151.538
640f39ea43c1fb6f724402aa,Miri-Miri,-16.756,-151.503
640f3a166d5ecc852c5ba231,Toauri,-16.8269,-151.493
640f39d46d5ecc2d615b933c,Faaroa,-16.7887,-151.381
640f39a738476e4a60d5fb4d,Fitii,-16.7239,-151.049
640f39e07966c310956a4e6e,Teavapiti,-16.7463,-151.421
640f3a01326c1785d85bebc9,Vaiaau,-16.8521,-151.493
640f3a0b355469e09bbfd663,Nao Nao,-16.9191,-151.418
640f399c6d5ecc6d6f5b8755,Faré,-16.71,-151.04
640f39b37966c359256a4441,Motu Mahara,-16.7211,-150.976
640f39be7966c31d4a6a46b6,Parea Left,-16.8217,-150.975
640f39c9326c1774085bdf48,Parea Right,-16.8249,-150.979
640f397bd19c66bde979664c,Hauru,-17.4839,-149.894
640f3970326c17ae325bcbd8,Haapiti,-17.5724,-149.878
640f3965326c177d0c5bc97d,Maharepa,-17.4768,-149.825
640f395a326c1754895bc709,Temae,-17.4923,-149.751
5842041f4e65fad6a7708d5f,Taapuna,-17.60305556,-149.6216667
5842041f4e65fad6a7708d5b,Maraa,-17.63333333,-149.6202778
640f3950d19c661349795d2e,Passe de Maraa,-17.7505,-149.582
5842041f4e65fad6a7708d62,Papara,-17.76388889,-149.5016667
640f39866d5eccbad35b8254,Papeari,-17.7526,-149.333
5842041f4e65fad6a7708d63,Vairao,-17.802,-149.313
5842041f4e65fad6a7708dbf,Teahupoo,-17.868,-149.253
584204204e65fad6a7709984,Ahonu,-17.507632,-149.4667
584204204e65fad6a7709982,Orofara,-17.507632,-149.46142
5842041f4e65fad6a7708d61,Papenoo Rivermouth,-17.51083333,-149.41972
640f3991355469efecbfbbb4,Rangiroa Atoll,-15.09,-147.72
6080b9e39af296a43d50adb7,Agate Beach,54.0681,-131.8201
640a5b07606c450d95b757b8,Bonanza Beach,53.4108,-132.5303
584204204e65fad6a7709980,Mackenzie Beach,49.133135,-125.90978
5842041f4e65fad6a7708db4,Rosie Bay,49.12833333,-125.9027778
5842041f4e65fad6a7708db6,Chesterman Beach,49.11805556,-125.89444
605218bdf3c1906b0c12e325,Chesterman Beach (South),49.1099,-125.8902
5842041f4e65fad6a7708db7,Cox Bay,49.1025,-125.87389
5842041f4e65fad6a7708db3,Long Beach,49.0641,-125.7682
5842041f4e65fad6a7708db5,Wickaninnish,49.0168,-125.686
640a5b02e92030c946a4913b,Florencia Beach,48.9932617,-125.63902
584204214e65fad6a7709bbb,Port Renfrew,48.561,-124.428
584204214e65fad6a7709bba,Sombrio,48.491,-124.3
584204214e65fad6a7709bb9,Jordan River,48.42,-124.056
640a3fd1606c457f88b0ae91,Hobuck Beach,48.3374,-124.6679
640a3fd0b6d7690063514311,Cape Flattery,48.3209,-124.6722
640a3fce4eb375b091946967,Tsoo-Yess Beach,48.3105,-124.6654
640a3fd44eb3756c89946b15,Twin Rivers,48.1648,-123.9503
6418e43293265b492e19020f,Shi Shi Beach,48.2717,-124.683
640a3fcce920304afb9de74f,Rialto Beach,47.9216,-124.6412
5842041f4e65fad6a77089af,La Push,47.90649175554033,-124.6370864743483
640a3fcbb6d76977915141bd,Ruby Beach,47.7109,-124.4155
640a3fc999dd44ed16033d0f,Seabrook Beach,47.1949,-124.2045
640a3fc7b6d7691ba75140d7,Ocean Shores,46.9574,-124.175
640a3fc6e92030845e9de5a7,Damon Point,46.9421,-124.1182
640a3fc44eb375687f94670c,Half Moon Bay - Westhaven,46.9062,-124.1218
5842041f4e65fad6a77089ad,Westport/Olympic Peninsula,46.8907710233147,-124.12964
5842041f4e65fad6a77089ae,Long Beach Peninsula,46.35185177248545,-124.06747
640a3fc3b6d7696190513fe2,Cape Disappointment State Park,46.2932,-124.0775
640a3fd3606c458650b0af12,Crescent Beach,48.1613,-123.7108
61e1fa37c7637a379ad82c4f,Fort Ebey,48.217295039974026,-122.7679
584204204e65fad6a77099fe,The Cove,45.97874,-123.93913
584204214e65fad6a7709d26,Seaside,45.97664,-123.94245
584204204e65fad6a77099fd,Indian Beach,45.928,-123.981
5842041f4e65fad6a77089b8,Cannon Beach,45.88179930310263,-123.96681
584204204e65fad6a77099ff,Short Sands,45.76,-123.968
584204214e65fad6a7709d25,Manzanita,45.712165,-123.94459
5842041f4e65fad6a77089b6,Rockaway Beach,45.61468496266301,-123.94643
640a3fc1606c45473cb0aab8,Short Beach,45.4747924,-123.9711
640a3fc0e92030dee69de454,Cape Lookout,45.3374,-123.978
60493024f796349dd9e7b100,Cape Kiwanda,45.2164,-123.977
5842041f4e65fad6a77089b7,Pacific City,45.20252914186085,-123.96975
5842041f4e65fad6a7708fa1,"Oceanside, OR",45.20246648135761,-123.96953344345093
584204204e65fad6a7709562,Park Point,46.731855,-92.04979
584204204e65fad6a7709565,Lester River,46.836016,-92.00554
584204204e65fad6a7709569,Brighton Beach,46.842866,-91.992128
584204204e65fad6a7709567,French River,46.896247,-91.89418
584204204e65fad6a7709563,Stoney Point,46.928071,-91.811896
584204204e65fad6a770956a,Knife River,46.943698,-91.778176
584204204e65fad6a7709566,Gooseberry Falls State Park,47.141378,-91.454241
584204204e65fad6a770956b,Beaver Bay,47.26027,-91.288639
584204204e65fad6a770956c,Temperance River Mouth,47.55269,-90.872941
584204204e65fad6a770956d,Cascade River State Park,47.73292,-90.422363
584204204e65fad6a770956e,"Grand Marais Beach, Minnesota",47.74897,-90.331016
584204204e65fad6a7709570,Magney State Park,47.814652,-90.047617
584204204e65fad6a7709560,Madeline Island/Big Bay,46.810422,-90.671978
640a3fb899dd4432a00338f6,Tolowa Dunes State Park,41.8691,-124.214
5842041f4e65fad6a77089c0,South Beach CA,41.74415759876137,-124.1771718063073
640a3fbab6d7697657513d96,Pelican State Beach,41.9922,-124.2115
640a3fb645190585df9cb724,Wilson Creek Beach,41.5987,-124.1008
640a3fb399dd4470f5033737,Klamath River,41.5461,-124.085
640a3fb245190573e49cb57e,Fern Canyon Beach,41.4024,-124.069
640a3fb0b6d76903b8513a73,Gold Bluffs Beach,41.3848,-124.0707
640a3fae606c453de7b0a53c,Agate Beach,41.1439,-124.144
5842041f4e65fad6a77089be,Sue-meg,41.13016238153297,-124.16466
640a3fad99dd448108033544,College Cove,41.067,-124.1517
640a3fab606c458564b0a46f,Trinidad State Beach,41.05816,-124.15049
5842041f4e65fad6a77089bd,Westhaven,41.02731183893966,-124.1149972888982
640a3faab6d7692d595138e8,Moonstone beach,41.0259,-124.117
640a3fa8b6d76910e551387d,Little River State Beach,41.0155,-124.1152
5842041f4e65fad6a77089bc,North Jetty,40.76684246920174,-124.23107
5842041f4e65fad6a77089ba,Shelter Cove,40.02528754746774,-124.06372
5842041f4e65fad6a77089bb,Humboldt Harbor Entrance,40.76816197136951,-124.24248
640a3fa6b6d7694d295137e9,Needle Rock,39.9442,-123.9688
640a3fa499dd44a3b1033317,Usal Beach,39.8312,-123.8516
640a3fa24eb3751e36945dff,DeHaven Creek,39.6597,-123.7868
640a3fa045190538c19cb0fc,Wages Creek Beach,39.6508,-123.7851
5842041f4e65fad6a7708b3f,Westport,39.63537452931482,-123.7858735430881
640a3f9ee92030d03d9ddb4e,Ten Mile Beach,39.5252,-123.7779
640a3f9db6d7699a4e513566,MacKerricher Laguna Point,39.4903,-123.8003
5842041f4e65fad6a7708b40,MacKerricher,39.47339314374171,-123.8053109861082
640a3f9b99dd443c370330cb,Virgin Creek,39.4635,-123.81
640a3f9a606c45eb13b0a015,Pudding Creek Beach,39.4598,-123.8087
640a3f98e920306c6a9dd9c4,Glass Beach,39.4525,-123.8135
59b1abae85802b0021bc25f2,Jug Handle State Beach ,39.376830049635686,-123.81848752498627
584204204e65fad6a770997d,Caspar Beach,39.361071,-123.81809
5842041f4e65fad6a7708b41,Mendocino Township,39.30271935445495,-123.79757
5842041f4e65fad6a7708b46,Point Arena,38.91444690804076,-123.7104245288878
5842041f4e65fad6a77089c9,Black Point Beach,38.6845180197959,-123.4322714291198
5842041f4e65fad6a77089c7,Russian Rivermouth,38.45077228660809,-123.13008
5842041f4e65fad6a77089c8,Salmon Creek,38.35329968518107,-123.06906
5842041f4e65fad6a77089c6,Doran Beach,38.31088736605785,-123.0496777333731
584204204e65fad6a770938c,Dillon Beach,38.249,-122.972
5842041f4e65fad6a77089c3,Point Reyes (north),38.04892513158693,-122.9892494965416
5842041f4e65fad6a77089c2,Bolinas,37.90514516176495,-122.68151
5842041f4e65fad6a77089c1,Stinson Beach,37.89801283969752,-122.64519
5842041f4e65fad6a77089bf,Fort Cronkite/Rodeo Beach,37.8289474958188,-122.5376795097543
5842041f4e65fad6a770897a,Fort Point,37.809987384424446,-122.4751353263855
5d9b68deab58860001c7359e,North Ocean Beach,37.77524656957721,-122.51312
638e32a4f052ba4ed06d0e3e,Central Ocean Beach,37.75281,-122.51014
5842041f4e65fad6a77087f9,South Ocean Beach,37.741668,-122.51038
5842041f4e65fad6a770897c,Sharp Park,37.63422542967464,-122.4951
5842041f4e65fad6a7708979,Rockaway,37.61081996647663,-122.4973287570634
5cbf8d85e7b15800014909e8,Pacifica,37.602434248190164,-122.50096
5842041f4e65fad6a7708976,Pacifica / Linda Mar,37.59881852720143,-122.50463
5842041f4e65fad6a7708978,Pedro Point,37.59883098461164,-122.5143843582282
5842041f4e65fad6a7708974,Montara,37.54735589428842,-122.5161090212687
5842041f4e65fad6a7708801,Maverick's,37.49142,-122.50428
5842041f4e65fad6a7708970,Princeton Jetty,37.499,-122.471
5842041f4e65fad6a770896f,Half Moon Bay,37.48296565175612,-122.4549300127824
5842041f4e65fad6a7708972,Tunitas Creek,37.35699547365155,-122.4069534707252
5842041f4e65fad6a770897d,Pescadero,37.27313605072472,-122.4127387912554
5842041f4e65fad6a770897e,Pigeon Point,37.18140279972666,-122.3926685899327
61c3a7a1277a933173241ebb,Gazos Creek,37.163144,-122.36535
5842041f4e65fad6a770897f,Ano Nuevo,37.11578956919415,-122.314699271291
5842041f4e65fad6a7708980,Waddell Creek,37.09520872681598,-122.2805474707768
5842041f4e65fad6a7708982,Scott Creek,37.04122807048655,-122.2333684729756
5842041f4e65fad6a7708983,Davenport,37.02350229387179,-122.21908
5842041f4e65fad6a7708981,Four Mile,36.96512852130351,-122.1252825495626
5e618490277db7f194f080fa,Three Mile,36.96126755026867,-122.1141016324793
5842041f4e65fad6a7708986,Natural Bridges,36.94905295955728,-122.0611823912244
61c3a280c41237ad6c1ea112,Swift Street,36.949133,-122.04759
5842041f4e65fad6a7708987,Mitchell's Cove,36.95154854910425,-122.0420693940968
5842041f4e65fad6a7708805,Steamer Lane,36.95188851423011,-122.02522
5842041f4e65fad6a7708806,Cowells,36.95918781542251,-122.02489
640a3f9599dd44782b032f46,Blacks Beach,36.96001,-121.99468
640a3f944eb375c353945a57,Sunny Cove,36.95997,-121.98957
5842041f4e65fad6a770898a,26th Ave,36.9572312370203,-121.98177
6418e48193265ba4351912cb,Wind and Sea,36.9536,-121.9762
6418e487a34c333f4319067d,Rockview,36.9543,-121.9749
5842041f4e65fad6a7708807,Pleasure Point,36.95468082526536,-121.97234
5842041f4e65fad6a770880b,Jack's,36.95782765000708,-121.9672887511276
584204204e65fad6a7709996,The Hook,36.959,-121.964
641c7e5395774e076bf4dd4c,Privates,36.964344,-121.96017
5842041f4e65fad6a7708ddf,Capitola,36.971492,-121.9486
61c3a441277a930aba23792a,La Selva,36.936007,-121.86856
5842041f4e65fad6a770898e,Manresa,36.91899972819882,-121.85536
5842041f4e65fad6a7708bbf,Moss Landing,36.80821791915616,-121.7905508507365
5842041f4e65fad6a7708941,Marina State Beach,36.69388179265737,-121.81289
584204214e65fad6a7709d1f,Monterey State Beach,36.608518,-121.86467
626b384c491aa93ef5684303,Monterey Wall,36.60199,-121.88908
584204214e65fad6a7709d05,Monterey Bay,36.606635,-121.89109
5842041f4e65fad6a7708bbc,Lover's Point,36.6260658643635,-121.9154753515004
5842041f4e65fad6a7708bb6,Boneyard,36.63788026219399,-121.9311174079908
5842041f4e65fad6a7708bb7,Asilomar,36.61880091818895,-121.9422482210244
5842041f4e65fad6a7708bb5,Mole Point,36.60883280895963,-121.9603486684287
5842041f4e65fad6a7708bb8,Ghost Tree,36.56037685095311,-121.9516152313922
5842041f4e65fad6a7708bb3,Carmel Beach,36.55448900657569,-121.9311417414934
5842041f4e65fad6a7708bb4,Big Sur Rivermouth,36.27968576518622,-121.85962
5842041f4e65fad6a7708bb1,Sand Dollar Beach,35.92499624829542,-121.4695748415559
5842041f4e65fad6a7708bbb,Willow Creek,35.89412279173619,-121.462380148047
584204214e65fad6a7709d00,Piedras Blancas,35.66782240455792,-121.28517269517155
640a3f904eb3752163945987,Leffingwell Creek,35.5802,-121.121
5842041f4e65fad6a770899d,Pico Creek,35.61533716776573,-121.1502053073914
5842041f4e65fad6a77089a9,San Simeon,35.61269103500222,-121.1480725356606
5842041f4e65fad6a770899c,Moonstone,35.5730538161116,-121.1143362345574
5842041f4e65fad6a770899e,Santa Rosa Creek,35.56829031927379,-121.1120653023953
5842041f4e65fad6a77089a2,"Cayucos Pier, Southside ",35.44820114936284,-120.90715
584204214e65fad6a7709cf9,Morro Strand,35.39128905521763,-120.86935
5842041f4e65fad6a770880a,Morro Bay,35.37815414378748,-120.86589
584204214e65fad6a7709cf8,Morro Bay Harbor,35.368694153714465,-120.8554
5842041f4e65fad6a77089a4,Cable Landing,35.30143372628852,-120.877819239902
5842041f4e65fad6a77089ab,Avila Beach,35.1775325966252,-120.7341125142258
584204204e65fad6a77093cc,Shell Beach,35.1617050382924,-120.68954
5842041f4e65fad6a77089ac,Pismo Beach Pier,35.13877877884115,-120.64535
5dbf1b86573ec300011071da,Grover Beach,35.120238313772994,-120.63634538582767
5a1c9be49caa98001b09d0e1,Oceano Pier Ave.,35.104023095931694,-120.63212513923645
5842041f4e65fad6a7708996,Surf Beach,34.68700870220497,-120.6111611019887
5842041f4e65fad6a7708991,Jalama,34.50875036590315,-120.50348
5842041f4e65fad6a7708990,The Ranch,34.45747731928454,-120.34242
6418dced93265b557c17799a,Tajiguas,34.4625,-120.099
5842041f4e65fad6a7708961,Refugio,34.46052293893899,-120.07328
5842041f4e65fad6a7708968,El Capitan,34.45759322742309,-120.0220251867315
640a3f8e99dd440255032d87,Haskell's Beach,34.4307,-119.916
5842041f4e65fad6a7708964,Sands,34.41023236011655,-119.88261
5842041f4e65fad6a7708962,Devereux,34.40754276777778,-119.87639
5842041f4e65fad6a770896c,Campus Point,34.405117655616,-119.84317
5842041f4e65fad6a7708960,Leadbetter Point,34.39836265281686,-119.70213
5842041f4e65fad6a7708966,Sandspit,34.40450193869233,-119.68752
5842041f4e65fad6a7708967,Hammond's,34.41549098334453,-119.6375149840203
640a3f8d45190559979cac38,Miramar,34.4179,-119.632
5db1cecf50b56600012feb6f,Padaro Beach,34.40653618215685,-119.55001
5842041f4e65fad6a770896e,Carpinteria State Beach,34.38935162233354,-119.51955
5842041f4e65fad6a7708975,Tarpits,34.3869373724559,-119.5142334209018
5842041f4e65fad6a7708814,Rincon,34.37256264378892,-119.47797
5842041f4e65fad6a770895a,Mussel Shoals (aka Little Rincon),34.35513640390276,-119.4400589884255
5842041f4e65fad6a7708945,Oil Piers,34.35113017313915,-119.426921498899
5842041f4e65fad6a7708944,Stanley's,34.34145077331085,-119.416999352654
640a3f8b4eb3758666945856,Hobson County Park,34.3374,-119.412
640a3f8a4eb375e96c9457df,Faria Beach,34.3304,-119.401
5842041f4e65fad6a7708957,Pitas Point,34.31720331100517,-119.3882324751725
584204204e65fad6a770904d,Mondos,34.32027598405835,-119.37698
5842041f4e65fad6a770895f,Solimar,34.30897456105926,-119.3582501170116
5842041f4e65fad6a770880d,Gold Coast Beachbreaks,34.29982939936656,-119.3489016603669
5842041f4e65fad6a770895e,Summer Beach,34.28991757054902,-119.3366646794652
5842041f4e65fad6a7708959,Emma Wood,34.27851754384724,-119.316202617226
5842041f4e65fad6a7708963,Ventura Overhead,34.27479983305182,-119.3133222656776
584204204e65fad6a77096b1,Ventura Point,34.27166936557063,-119.30202
5842041f4e65fad6a7708828,C St.,34.272041739333,-119.2997646331
5842041f4e65fad6a7708811,Ventura Harbor,34.245076,-119.26799
5842041f4e65fad6a770894c,Oxnard,34.17876333306018,-119.2399483564372
640a3f8845190582e79caafd,Silver Strand,34.1515,-119.221
640a3f864eb37520359456ff,Port Hueneme Beach Park,34.142,-119.198
640a3f85606c453afab09abd,Ormond Beach,34.1356,-119.186
5842041f4e65fad6a7708813,County Line,34.051,-118.964
640a3f83e920301f5b9dd492,Staircase Beach,34.0456,-118.948
5842041f4e65fad6a770893f,Leo Carrillo,34.043762,-118.93294
640a3f824eb375f0b99455c0,Zeros,34.0417,-118.917
5afb6566bb6fd9001a250fbb,Zuma Beach,34.020960259298185,-118.83237
5842041f4e65fad6a7708936,Point Dume,34.0016731994772,-118.80456
5842041f4e65fad6a7708937,Latigo Point,34.02587527588963,-118.7554939066114
5842041f4e65fad6a7708817,Malibu Third Point,34.03096101876324,-118.68109
584204214e65fad6a7709b9f,Malibu First Point,34.03577735818882,-118.67668
5842041f4e65fad6a770881e,Topanga Beach,34.037508438646746,-118.58339846155594
5842041f4e65fad6a7708930,Chart House,34.03944902292561,-118.57539
5842041f4e65fad6a7708914,Sunset Point,34.038053387863464,-118.5532
584204214e65fad6a7709b9e,Sunset Beach,34.03869971264174,-118.55142341928953
5ff8a259222b7ff78169c757,Will Rogers State Beach,34.03484,-118.53718
5af21bc9177e44001a8cc60b,Santa Monica Beach North,34.012794079166625,-118.50756
5b7efe06d7830b001a875b22,"Santa Monica Pier, North",34.00905611660904,-118.49935054779053
5842041f4e65fad6a77088f7,Santa Monica Pier,34.00750300824362,-118.4971783496269
5d6562fdca83aa00012b47af,Bay St.,34.00514319989036,-118.49229
5af21e4c8a1a07001a4531dc,Santa Monica Beach South,34.004027739211864,-118.49239633837585
590927576a2e4300134fbed8,Venice Breakwater,33.98480211231971,-118.47442296131881
5842041f4e65fad6a7708819,Venice Beach,33.984079047970035,-118.47381591796875
5accf279bd428f001ad70a34,Venice Beach Pier,33.97707210574929,-118.46795
5842041f4e65fad6a77088ff,Dockweiler Beach,33.94070283102945,-118.44321
5842041f4e65fad6a7708900,Shitpipe,33.9231846937237,-118.4341465777908
5842041f4e65fad6a7708902,Hammerland,33.9108528052242,-118.4279133138721
5842041f4e65fad6a7708906,El Porto,33.90129336911256,-118.42184
61c376003cf37564c0eb8125,Bruce's Beach,33.89339,-118.4188
5842041f4e65fad6a7708907,Manhattan Beach Pier,33.87963506431794,-118.41102
5842041f4e65fad6a7708904,Hermosa Beach,33.87201368173932,-118.4075151286262
5b17281e4a274e001a11fcc3,Hermosa Beach Pier,33.863543271422984,-118.40649
5842041f4e65fad6a7708921,Redondo Breakwater,33.85044519861206,-118.40048
584204214e65fad6a7709d0b,Sapphire St.,33.832674084361386,-118.39132919224596
61c26ab656cd3fb55d9bd18d,Knob Hill,33.82895,-118.39123
61c372b6277a93e7f718ba8c,Burnout Beach,33.815894,-118.39218
5af211c8bb6fd9001a25054a,Torrance Beach,33.81120874378085,-118.39274446746322
5842041f4e65fad6a7708920,Haggerty's,33.80930828074364,-118.3933198342649
640a3f804eb375e33a945550,RAT Beach,33.8037,-118.39493
5842041f4e65fad6a770892d,PV Cove,33.79294656286144,-118.4070316699825
5842041f4e65fad6a770892c,Lunada Bay,33.77209986806257,-118.4268428476672
640a3f7d606c450749b098e4,White Point,33.717517,-118.32243
5842041f4e65fad6a7708927,Cabrillo Beach,33.70877301002487,-118.2840112858389
640a3f7fb6d769c854512e14,64th Place,33.7464,-118.123
5842041f4e65fad6a77088e5,Ray Bay,33.73933701820233,-118.117
5842041f4e65fad6a7708820,Seal Beach Jetty,33.73954373690184,-118.11414
5b71b95fc27dc6001ab8becf,"Seal Beach Pier, Northside",33.73828949475321,-118.10845
5842041f4e65fad6a77088e4,"Seal Beach Pier, Southside",33.7368459504689,-118.10342
5842041f4e65fad6a77088e7,Surfside,33.728733,-118.08982
5842041f4e65fad6a7708822,Anderson Street,33.72309983348433,-118.08078
5842041f4e65fad6a77088e8,Bolsa Chica State Beach,33.68760321488161,-118.04236
640a3f7c606c45fdf1b09880,HB Cliffs,33.6765,-118.0314
5842041f4e65fad6a77088ea,North HB Streets,33.66704400178788,-118.0192
5842041f4e65fad6a7708827,Huntington Beach Pier Northside,33.65574085629463,-118.00397
5842041f4e65fad6a77088ed,Huntington Beach Pier Southside,33.65475101379567,-118.00291
58bdebbc82d034001252e3d2,Huntington St.,33.65160561515691,-117.99697
584204204e65fad6a770998c,Huntington State Beach,33.6382808119474,-117.97553
5842041f4e65fad6a77088ee,River Jetties,33.62778647706099,-117.95939
5842041f4e65fad6a7708e54,Newport Upper Jetties,33.6227227388759,-117.94685
5842041f4e65fad6a770882a,Newport Lower Jetties,33.61555743705257,-117.93676
584204204e65fad6a7709115,Blackies,33.60891872680435,-117.93112
5d7142300b2fd10001761060,"Newport Pier, Southside",33.606906797080846,-117.92890985952454
5842041f4e65fad6a77088f2,Newport Point,33.605165797643664,-117.92500376701355
5bf5d3760fc49e0001b6d9cc,Newport Beach Southside,33.60482623885118,-117.92974
5842041f4e65fad6a770882c,Newport Beach Pier,33.60577342582,-117.9315376281
5842041f4e65fad6a770882b,The Wedge,33.5930302087,-117.88199
5842041f4e65fad6a77088f3,Corona del Mar,33.58982984726977,-117.87713
5842041f4e65fad6a7708f21,Crystal Cove,33.55895564746362,-117.82135248184204
640a3f7ae92030a2449dd23c,Crescent Bay,33.5462,-117.8016
5842041f4e65fad6a77088e3,Rockpile,33.54268310353641,-117.7916
5842041f4e65fad6a77088de,Thalia Street,33.53561225884637,-117.7799
5842041f4e65fad6a77088dd,Brooks Street,33.5326591767067,-117.77764
640a3f794eb37508e5945334,Agate Street,33.5278,-117.773
5842041f4e65fad6a77088dc,Aliso Creek,33.50894790083017,-117.75243
5842041f4e65fad6a770882e,Salt Creek,33.475793399792984,-117.72291
5842041f4e65fad6a77088d5,Strands,33.4663042002114,-117.7168352817103
5842041f4e65fad6a77088d7,Doheny State Beach,33.4609858001748,-117.68535
640a3f76606c457ebdb0967b,Poche Beach,33.4404,-117.646
640a3f744eb37520719451b8,204s,33.4248,-117.627
5cc8b55739a02e0001ac69f8,"San Clemente Pier, Northside",33.420192958432395,-117.62104721783885
5842041f4e65fad6a7708830,T-Street,33.41800974113613,-117.61952
5842041f4e65fad6a77088cf,San Clemente State Beach,33.40484417640326,-117.60749
5842041f4e65fad6a7708884,Cottons,33.39000832738053,-117.59852
5842041f4e65fad6a7708887,Upper Trestles,33.38445596302903,-117.59445
5842041f4e65fad6a770888a,Lower Trestles,33.38143999849023,-117.58843
5842041f4e65fad6a7708886,Middles,33.38042605929805,-117.58332
5842041f4e65fad6a770888b,Church,33.379622288757,-117.57894
584204204e65fad6a77099d4,San Onofre State Beach,33.3726134926491,-117.56579
5842041f4e65fad6a7708885,Trails,33.359416282661,-117.54167901405711
5842041f4e65fad6a7708832,Oceanside Harbor,33.202391008646,-117.39475
5842041f4e65fad6a7708835,Oceanside Pier,33.19477795952803,-117.38667
5c0060aa12c17b0001a78941,"The Rock, Oceanside",33.18195637639852,-117.37531
5bec658795aee10001fadde5,Forster St. Oceanside,33.18234248788874,-117.37464666366577
5bfdced06871990001fd9ff2,Carlsbad State Beach,33.15384008522178,-117.35137
5842041f4e65fad6a7708837,Tamarack,33.14948100706,-117.35029
5842041f4e65fad6a77088a6,Terra Mar Point,33.130343587871906,-117.33667796442558
5842041f4e65fad6a77088a5,Ponto,33.08685865930869,-117.31532
5842041f4e65fad6a770889f,Grandview,33.07541383424675,-117.3105
5842041f4e65fad6a77088a0,Beacons,33.065267421296596,-117.30577
5842041f4e65fad6a77088a3,Moonlight State Beach,33.04694255008896,-117.29966
5842041f4e65fad6a77088b7,D Street,33.04569760260221,-117.2994
5842041f4e65fad6a77088b4,Swami's,33.0341859796287,-117.29552
5c008f5313603c0001df5318,Pipes,33.02460487110932,-117.28879
5842041f4e65fad6a77088b8,San Elijo State Beach,33.02090944350196,-117.28535
5842041f4e65fad6a77088b1,Cardiff Reef,33.01352178146273,-117.28219
584204214e65fad6a7709d1a,George's,33.01113550717834,-117.28030529109606
5842041f4e65fad6a77088b3,Seaside Reef,33.00211185876003,-117.281101957955
640a3f73b6d7693ba4512a83,Solana Beach,32.98938,-117.2743
5842041f4e65fad6a77088b0,Del Mar Rivermouth,32.97527261243354,-117.2721061331305
5842041f4e65fad6a77088af,Del Mar,32.95916304183685,-117.26963
584204204e65fad6a7709994,Torrey Pines State Beach,32.92712825415561,-117.25990005291749
5842041f4e65fad6a770883b,Blacks,32.877231,-117.25303
5842041f4e65fad6a7708839,Scripps,32.865777159358856,-117.25614295356122
5842041f4e65fad6a77088cc,La Jolla Shores,32.863,-117.257
5842041f4e65fad6a770883d,Horseshoe,32.838278,-117.28396
5842041f4e65fad6a770883c,Windansea,32.82978974229765,-117.28161740727381
5842041f4e65fad6a770883a,Birdrock,32.813094,-117.27381
5842041f4e65fad6a77088c2,PB Point,32.80662846492798,-117.2688764333725
5842041f4e65fad6a77088c4,Old Man's at Tourmaline,32.8060476681448,-117.26479
5842041f4e65fad6a7708841,Pacific Beach,32.796582258728826,-117.25779
5842041f4e65fad6a7708842,Mission Beach,32.776636,-117.25514
5842041f4e65fad6a770883f,Ocean Beach,32.75034717673179,-117.25337
5842041f4e65fad6a7708840,Sunset Cliffs,32.73693,-117.25718
5842041f4e65fad6a77088ce,Coronado Beach,32.67443657790586,-117.17421316238693
5842041f4e65fad6a7708844,Imperial Beach Pier,32.577195519016,-117.13475
5842041f4e65fad6a77088cb,Tijuana Slough,32.557056711256,-117.1327445020322
584204204e65fad6a77091ae,San Antonio Del Mar - Norte,32.427,-117.099
5842041f4e65fad6a7708e1b,Baja Malibu,32.417,-117.096
584204204e65fad6a77091af,Marisol North Point,32.398,-117.092
584204204e65fad6a77091c1,Marisol,32.388,-117.092
5842041f4e65fad6a7708bd0,Rosarito Beach,32.3489432986615,-117.0668043482785
584204204e65fad6a77091bf,Renes,32.312,-117.049
584204204e65fad6a77091b5,Alfonsos,32.274,-117.038
584204204e65fad6a77091b2,Popotla,32.268,-117.026
584204204e65fad6a77091b7,Calafia,32.2668,-117.018
584204204e65fad6a77091bb,El Morro Point (K37.5),32.264,-117.008
584204204e65fad6a77091ba,K-38,32.264,-117.006
5b578907a1c728001be14897,Teresa's,32.261622511860814,-116.99352753021833
584204204e65fad6a77091b9,Las Gaviotas,32.252029281646706,-116.96304048356137
584204204e65fad6a77091be,Rauls,32.24587,-116.943
584204204e65fad6a77091bc,K-40,32.241,-116.939
584204204e65fad6a77091c0,Cantamar Settlement,32.22679,-116.92318
584204204e65fad6a77091bd,Primo Tapia,32.22162,-116.92079
584204204e65fad6a77091b8,Rancho Santini,32.21868,-116.91963
584204204e65fad6a77091c3,Dunes,32.21327,-116.91697
584204204e65fad6a77091cb,Halfway House,32.17528,-116.90718
584204204e65fad6a77091c2,Campo Lopez (K-55),32.1568671586803,-116.89901053905487
584204204e65fad6a77091c4,K-55 1/2,32.153,-116.898
584204204e65fad6a77091c6,Alisitos,32.13267,-116.8886
584204204e65fad6a77091c7,La Fonda,32.118,-116.888
584204204e65fad6a77091c5,La Mision,32.105,-116.89
584204204e65fad6a77091ca,La Salina,32.058,-116.887
584204204e65fad6a77091c9,El Paso,32.036,-116.887
584204204e65fad6a77091c8,Mirador Viewpoint,31.986,-116.854
5842041f4e65fad6a7708bd2,Salsipuedes,31.97636522717259,-116.7913888957552
5842041f4e65fad6a7708bc9,San Miguel,31.90016519474307,-116.7311659566412
5842041f4e65fad6a7708bc7,Todos Santos / Killers,31.80902927937703,-116.8081979700041
584204204e65fad6a77091cd,3Ms,31.878,-116.69
584204204e65fad6a77091ce,Cannery Stacks,31.869,-116.682
584204204e65fad6a77091cf,California Trailer Park,31.859,-116.669
584204204e65fad6a77091d0,Ensenada Beaches,31.778,-116.632
584204204e65fad6a77091d1,Boca De Santo Tomas,31.561,-116.693
584204204e65fad6a77091d3,Lighthouse (Punta San Jose),31.462,-116.589
584204204e65fad6a77091d5,Punta Cabras,31.329,-116.457
584204204e65fad6a77091d6,K-181,31.297,-116.418
584204204e65fad6a77091da,San Antonio Del Mar - Sur,31.037,-116.345
584204204e65fad6a77091db,Cabo Colonet,30.953,-116.268
584204204e65fad6a77091d9,Quatro Casas,30.857,-116.177
584204204e65fad6a77091dc,Roberts Left,30.855,-116.15
584204204e65fad6a77091de,Punta San Jacinto (Shipwrecks),30.843,-116.136
584204204e65fad6a77091dd,Rincon De Baja,30.827,-116.116
584204204e65fad6a77091e0,Camalu,30.813,-116.087
584204204e65fad6a77091df,Playa San Ramon,30.734,-116.053
584204204e65fad6a77091e1,Playa Santa Maria,30.326,-115.854
584204204e65fad6a77091e2,Cielito Lindo,30.293,-115.833
584204204e65fad6a77091e3,El Socorro,30.2,-115.812
584204204e65fad6a77091e5,Casas,30.143,-115.818
584204204e65fad6a77091f7,Punta Baja,29.941,-115.817
584204204e65fad6a77091f9,Punta San Antonio,29.744,-115.706
584204204e65fad6a77091fb,Punta San Carlos,29.602,-115.5
584204204e65fad6a77091fc,Punta Canoas,29.42,-115.178
584204204e65fad6a77091fd,Punta Blanca,29.089,-114.703
584204204e65fad6a7709202,Punta Cono,28.957,-114.585
584204204e65fad6a7709215,Punta Maria,28.912,-114.529
584204204e65fad6a7709201,El Cardon,28.9,-114.464
584204204e65fad6a7709214,Punta Ositos,28.872,-114.44
584204204e65fad6a7709213,Punta Negra,28.801,-114.391
640a43dfb6d769dfda5246ca,Punta Sta Rosalillita,28.6539,-114.245
640a43e1e9203087f19eec32,Open Doors,27.8629,-115.159
584204204e65fad6a770920b,Bahia Tortugas (Turtle Bay),27.658,-114.899
584204204e65fad6a770920c,Asuncion Bay,27.146,-114.268
584204204e65fad6a770920e,San Hipolito,26.967,-114.009
584204204e65fad6a770920f,La Bocana,26.8,-113.74
640a43e4606c45246bb1b27a,Punta Abreojos,26.7489,-113.527
640a43e6e920303e539eed3b,Scorpion Bay,26.2424,-112.475
584204204e65fad6a7709220,Punta San Gregorio,26.072,-112.314
584204204e65fad6a7709222,Las Barrancas,26.014,-112.23
584204204e65fad6a7709223,San Jorge,25.683,-112.105
584204204e65fad6a7709216,La Laguna,26.278,-112.592
584204204e65fad6a7709212,Punta Santo Domingo,26.324,-112.69
584204204e65fad6a7709211,Campo Renes,26.793,-113.484
584204204e65fad6a7709207,Playa Elefante (Isla Cedros),28.165,-115.327
584204204e65fad6a7709200,Puerto San Andres,28.691,-114.299
584204204e65fad6a77091fe,Punta Rosarito,28.572,-114.171
584204204e65fad6a7709205,The Wall,28.551,-114.15
584204204e65fad6a7709206,Millers Landing,28.484,-114.078
584204204e65fad6a770922b,Mag Bay,24.756,-112.237
640a43e8e92030007f9eedd4,Punta Conejo,24.0718,-111.0069
584204204e65fad6a770922c,Punta Marquez,23.956,-110.883
584204204e65fad6a770922d,Beachbreak,23.82,-110.739
584204204e65fad6a770922e,La Bocana,23.568,-110.35
584204204e65fad6a7709230,Playa San Pedro,23.535,-110.313
584204204e65fad6a770922f,La Pastora,23.486545,-110.27395
584204204e65fad6a7709255,Punta Colorados,23.579,-109.513
584204204e65fad6a7709253,Punta Arenas,23.546,-109.469
584204204e65fad6a7709254,El Rincon,23.484,-109.452
584204204e65fad6a7709251,Cabo Pulmo,23.417,-109.422
584204204e65fad6a7709250,Los Frailes,23.379,-109.42
584204204e65fad6a770924e,Frailes South,23.342,-109.423
584204204e65fad6a770924f,Boca Del Solado,23.254,-109.436
5842041f4e65fad6a7708bdc,Nine Palms,23.174,-109.476
5842041f4e65fad6a7708bdb,Shipwreck,23.12,-109.527
5842041f4e65fad6a7708bd9,The Estuary,23.04871261564847,-109.6800082320905
5842041f4e65fad6a7708bda,Zippers,23.029,-109.714
5842041f4e65fad6a7708bd7,The Rock,23.02506324659338,-109.71456
5842041f4e65fad6a7708bd4,Old Man's,23.02358192684975,-109.7147
584204204e65fad6a770924d,Costa Azul,23.015,-109.717
584204204e65fad6a770924c,Punta Pamilla,23.008,-109.712
584204204e65fad6a770924a,Bahia Chileno,22.945,-109.804
5842041f4e65fad6a7708bd8,Monuments,22.896,-109.869
584204204e65fad6a770924b,Backwash,22.892,-109.895
584204204e65fad6a7709249,Migrino,23.099,-110.117
584204204e65fad6a7709248,Punta Gasparino,23.179,-110.145
5842041f4e65fad6a7708bd5,Cerritos,23.32877869857464,-110.17715
640a43e3b6d7691fdc5247be,Pescadero,23.347,-110.19
5842041f4e65fad6a7708bd6,San Pedrito,23.36729303816202,-110.20268
5842041f4e65fad6a7708bd3,Las Palmas,23.39151658553801,-110.2143952234506
5842041f4e65fad6a7708bd1,Todos Santos,23.44473573026049,-110.2452466338192
584204204e65fad6a77091b6,Tiburon,23.802,-106.885
584204204e65fad6a77091ad,Milagro,23.796,-106.884
584204204e65fad6a77091b0,Patoles,23.742,-106.847
584204204e65fad6a77091b1,Dimas Rivermouth,23.701,-106.812
584204204e65fad6a77091b3,Las Labradas,23.613,-106.767
584204204e65fad6a77091b4,Marmols,23.492,-106.629
584204204e65fad6a77091d2,Rucos,23.441,-106.583
584204204e65fad6a77091d4,Playa Bruja,23.303,-106.492
584204204e65fad6a77091d7,Las Flores,23.241,-106.454
584204204e65fad6a77091d8,El Camaron,23.238,-106.448
584204204e65fad6a77091e6,Valentinos,23.237,-106.445
584204204e65fad6a77091e7,Los Pinos,23.209,-106.429
584204204e65fad6a77091e4,Stone Island,23.183,-106.4
584204204e65fad6a77091ea,Barron,23.089,-106.295
5842041f4e65fad6a7708b96,Port Mansfield,26.56132001354785,-97.26967
584204204e65fad6a7709436,South Padre Island,26.107378,-97.16126
5842041f4e65fad6a7708b93,Isla Blanca State Park,26.06961904983808,-97.15243
5842041f4e65fad6a7708b92,Boca Chica,26.06123118244004,-97.14769
6033da7c9ddc9303e4202738,Port O'Connor Jetties,28.417735,-96.32321
5842041f4e65fad6a7708b81,St. Joe's Island,27.84601633294622,-97.04372701603208
5842041f4e65fad6a7708b83,Horace Caldwell Pier,27.82704888028459,-97.05277
5842041f4e65fad6a7708b84,Fish Pass,27.67634780977739,-97.16473
5842041f4e65fad6a7708b82,J.P. Luby Surf Park,27.64327897922308,-97.18612
604135df24113d03c13cc9bd,Packery Channel Jetties,27.6168,-97.2003
5cb4b47f5ca7140001f0bbf8,North Padre Seawall,27.605499692395536,-97.20649480819702
5842041f4e65fad6a7708b85,Bob Hall Pier,27.58118015227788,-97.2191
5842041f4e65fad6a7708b80,Matagorda,28.59674155718017,-95.97559064551533
5842041f4e65fad6a7708b86,Quintana,28.93236038480434,-95.30205
5842041f4e65fad6a7708b87,Octagon,28.94367955201253,-95.28969
5842041f4e65fad6a7708889,Surfside,28.944414,-95.28883
5842041f4e65fad6a7708b89,Assholes,28.9653363517684,-95.26739753922841
5842041f4e65fad6a7708b88,Boilers,29.02647703020454,-95.18702498902157
5842041f4e65fad6a7708b8b,West Galveston,29.13902635892794,-95.04070493829546
605a3acc9166962efa2da3ba,Jamaica Beach,29.17983153836413,-94.97202
6033c7b29ee06412ef67839c,91st St Pier,29.24994,-94.85277
5842041f4e65fad6a7708b8c,61st Street,29.26596874354759,-94.82556
5842041f4e65fad6a7708b8a,51st Street,29.27159138874912,-94.81532732168617
5842041f4e65fad6a7708e3c,43rd St,29.274,-94.808
5842041f4e65fad6a7708b8d,37th Street,29.279815639798642,-94.80146
5842041f4e65fad6a7708e36,33rd St,29.281,-94.797
584204204e65fad6a77099fb,28th St,29.284244,-94.792182
5842041f4e65fad6a7708b8e,Flagship,29.28680654948785,-94.79106
5842041f4e65fad6a7708b91,Crystal Beach,29.4510876813709,-94.63230467945758
5842041f4e65fad6a7708b8f,A-Frames,29.4702751255731,-94.59146640261427
5842041f4e65fad6a7708b90,Meacom's Pier,29.52172627288487,-94.45911
640a2d11451905719597f3f2,Mae's Beach,29.7489,-93.6636
584204204e65fad6a7709b64,Holly Beach,29.769,-93.46
584204204e65fad6a7709b63,Fourchon,29.086,-90.222
584204204e65fad6a7709b66,Grande Isle,29.201,-90.038
640a2d14451905376297f483,Rutherford Beach,29.7585,-93.1243
59cac82265827d001b256033,Surf Ranch,36,-120
5b6372a467c33d001a2ae940,BSR Lefts,31.621466203688204,-97.00386233659782
5b637324340b50001a7176b1,BSR Rights,31.62098399543353,-97.00358228630989
5b6371e27de5f7001a382fd2,BSR Overview,31.618903601636553,-97.00126158488467
5b84820982d0de001a33fa79,Outer Waters,33.00031381345169,-121.50089
5842041f4e65fad6a7708804,Roads End,44.997,-124.018
5842041f4e65fad6a77089b4,Lincoln City,44.95857310226525,-124.0219017690976
584204214e65fad6a7709d23,Beverly Beach,44.724734,-124.060801
5a1c55dbfa245a001a43d459,Otter Rock ,44.75256978367964,-124.06527
640a3fbf99dd440f29033aac,Moolack Beach,44.6998,-124.0654
584204214e65fad6a7709d27,Agate Beach,44.658023,-124.06324
5842041f4e65fad6a77089b5,Newport,44.63792761362982,-124.0657
6092eed4298a480a6db997de,Yachats,44.307722,-124.10708
5842041f4e65fad6a77089b2,Florence South Jetty,44.01532689312291,-124.13865
640a3fbc99dd44a8e4033a0d,Winchester Bay,43.6633,-124.213
601ae044df7c711be586dd8f,Coos Bay,43.3467,-124.361
5842041f4e65fad6a77089b1,Port Orford,42.74071837900346,-124.4983727491047
5842041f4e65fad6a77089b3,Gold Beach South Jetty,42.41812540774362,-124.42945
5842041f4e65fad6a77089b0,Brookings Jetty,42.04368239985442,-124.26828
640a43f44eb375764d95728b,Playa Novillero,22.377712,-105.68586
584204204e65fad6a77091e8,San Blas,21.526,-105.284
584204204e65fad6a77091ec,Stoners Point,21.512,-105.262
584204204e65fad6a77091e9,Las Islitas,21.516,-105.246
584204204e65fad6a77091eb,Aticama,21.484,-105.202
584204204e65fad6a77091ed,Santa Cruz,21.437,-105.203
584204204e65fad6a77091ef,Punta Custodio,21.346,-105.247
584204204e65fad6a77091f0,Chacala,21.188,-105.23
5842041f4e65fad6a7708c46,Costa Azul,20.934,-105.401001
584204204e65fad6a77091ee,San Pancho,20.9,-105.418
640a43f14eb3751245957173,Ostiones,20.8822,-105.43
584204204e65fad6a77091fa,Sayulita,20.872,-105.441
62df04768bfd3f6ad4a214b0,Palmitas,20.76578,-105.49733
584204204e65fad6a7709abf,El Anclote,20.769,-105.521
584204204e65fad6a77091f2,La Lancha,20.762,-105.494
584204204e65fad6a77091f1,Banderas,20.749,-105.46
584204204e65fad6a77099db,El Faro,20.756,-105.531
584204204e65fad6a7709ac2,Bahia TW,20.76,-105.538
640a43ef4519054f8a9dc4c2,Hammerhead,21.3155,-106.226
584204204e65fad6a77091f3,Punta Burros,20.7505,-105.454
584204204e65fad6a7709ac3,Veneros,20.747,-105.436
640a43f2b6d76989f0524beb,Quimixto,20.505694,-105.36347
584204204e65fad6a77091f6,Playa Tenacatita,19.289,-104.855
584204204e65fad6a77091f4,Boca de Iguanas,19.305,-104.819
584204204e65fad6a77091f8,Barra de Navidad,19.19975,-104.68577
584204204e65fad6a77091f5,Manzanillo,19.118,-104.368
584204204e65fad6a7709208,Cuyutlan,18.915,-104.073
584204204e65fad6a770920a,El Paraiso,18.873,-103.99
584204204e65fad6a770920d,Pascuales,18.853,-103.962
584204204e65fad6a7709210,Boca de Apisa,18.683,-103.736
584204204e65fad6a7709217,Las Brisas,18.556,-103.642
640a43f64519055f519dc6c7,La Ticla,18.50806,-103.58618
584204204e65fad6a770921a,La Ticla,18.453,-103.56
584204204e65fad6a7709219,Huahua,18.175,-103.011
584204204e65fad6a770921c,Rio Nexpa,18.082,-102.792
584204204e65fad6a770921b,Playa Azul,17.977,-102.349
640a43fc99dd4467c1044936,El Faro (Guerrero),17.9215,-102.167
640a43f84eb375d89895737f,Petacalco,17.9803,-102.101
584204204e65fad6a770921d,The Ranch,17.914,-101.871
584204204e65fad6a770921e,La Saladita,17.836,-101.774
584204204e65fad6a770921f,Troncones,17.794,-101.749
584204204e65fad6a7709225,Playa Linda,17.695,-101.649
584204204e65fad6a7709224,Ixtapa,17.659,-101.609
584204204e65fad6a7709226,Las Gatas,17.622,-101.554
584204204e65fad6a7709228,Barra de Potosi,17.539,-101.45
584204204e65fad6a7709227,La Barrita,17.411,-101.185
584204204e65fad6a770922a,Puerto Vincante Guerro,17.269,-101.053
640a43f9b6d769a6d9524db6,Playa Boca Chica,17.1309,-100.65
640a43fb606c451beab1b89d,Acapulco,16.82,-99.9
584204204e65fad6a7709231,Papanoa,17.172,-100.766
584204204e65fad6a7709232,Playa Michigan,17.136,-100.675
584204204e65fad6a7709233,Playa Paraiso,17.077,-100.481
584204204e65fad6a7709234,Revolcadero,16.789,-99.826
584204204e65fad6a7709235,Barra Vieja,16.686,-99.627
584204204e65fad6a7709236,Chacahua,15.967,-97.674
584204204e65fad6a7709237,Cerro Hermosa,15.967,-97.536
584204204e65fad6a7709238,Carrizalillo,15.859,-97.0796
5842041f4e65fad6a7708b43,Puerto Escondido,15.846,-97.06
584204204e65fad6a770923c,La Punta,15.831,-97.048
584204204e65fad6a770923b,Barra de Colotepec,15.806,-97.019
584204204e65fad6a770923d,San Agustinillo,15.663,-96.55
584204204e65fad6a770923e,Zipolite,15.657,-96.53
584204204e65fad6a770923f,Rio de Coyula,15.685,-96.304
584204204e65fad6a7709240,San Agustin,15.684,-96.246
584204204e65fad6a7709241,Playa La Bocana,15.786,-96.054
584204204e65fad6a7709242,Playa El Mojon,15.806,-96.006
584204204e65fad6a7709244,Barra de la Cruz,15.821,-95.964
584204204e65fad6a7709402,La Jolla,15.876,-95.776
584204204e65fad6a7709243,Punta Chipehua,16.03655,-95.37461
628d03773a8e980f6f978d0d,Chivo,16.1078,-95.2745
60baa263ff579bfa5b89da12,Punta Conejo ,16.1355,-95.2465
584204204e65fad6a7709245,Salina Cruz,16.137,-95.246
640a43fe99dd444fa90449af,La Ventosa,16.1865,-95.1482
584204204e65fad6a7709246,Puerto Madero,14.719,-92.428
584204204e65fad6a7709a5c,Ocos,14.503,-92.195
584204204e65fad6a7709a5b,Tilapa,14.494,-92.181
584204204e65fad6a7709a5a,Champerico,14.292,-91.918
584204204e65fad6a7709a59,Tulate,14.154,-91.723
584204204e65fad6a7709a56,Tecojate,13.95,-91.309
584204204e65fad6a7709a57,Sipacate,13.92,-91.146
584204204e65fad6a7709a58,El Paredon,13.913,-91.078
584204204e65fad6a7709a55,La Barrita,13.911,-90.956
584204204e65fad6a7709a54,Chulamar,13.913,-90.873
584204204e65fad6a7709a53,Puerto San Jose,13.914,-90.822
640a35ff606c4540edae234f,La Barra - Likin,13.9224,-90.772
584204204e65fad6a7709a52,Iztapa,13.925,-90.721
584204204e65fad6a7709a51,Monterrico,13.887,-90.483
584204204e65fad6a7709a50,Hawaii,13.863,-90.412
584204204e65fad6a7709a4f,Las Lisas,13.792,-90.248
584204204e65fad6a7709a4e,Barra de la Gabina,13.778,-90.213
584204204e65fad6a7709b71,Escolleras,22.266,-97.784
584204204e65fad6a7709b73,Playa Norte,19.219,-96.161
584204204e65fad6a7709b72,Marti,19.174,-96.119
584204204e65fad6a7709b74,Destapador,19.162,-96.101
584204204e65fad6a7709b75,Tampi,19.105,-96.098
584204204e65fad6a7709b76,Costalitos,19.104,-96.096
584204204e65fad6a7709b78,Camaronera,18.82,-95.832
584204204e65fad6a7709a31,Barahona,-0.9701,-90.9944
584204204e65fad6a7709a2f,El Faro,-0.9622,-90.9827
584204204e65fad6a7709a2c,Cerro Gallina,-0.7099,-90.5062
584204204e65fad6a7709a2d,Tortuga Bay,-0.7656,-90.333
584204204e65fad6a7709a2e,Seymour Norte,-0.3881,-90.2899
584204204e65fad6a770930c,Easter Island Northside,-27.022,-109.395
584204204e65fad6a770930b,Easter Island Southside,-27.183,-109.362
640a3620e92030011d9b672c,Rapa Nui,-27.196,-109.4225
584204204e65fad6a770955f,Porcupine Mountains State Park,46.693919,-89.996978
584204204e65fad6a7709564,Misery Bay,46.998577,-89.012007
584204204e65fad6a770955c,McLain State Park,47.23919,-88.60812
584204204e65fad6a770955b,Sand Bay,46.858859,-88.364278
584204204e65fad6a770955d,Great Sand Bay,47.379377,-88.44797
584204204e65fad6a770955e,Bete Grise Bay,47.374906,-87.961592
584204204e65fad6a7709558,Big Bay,46.829376,-87.70901
584204204e65fad6a7709559,Little Presque Isle Beach,46.640818,-87.480239
584204204e65fad6a7709557,Hot Pond Beach,46.572427,-87.390601
584204204e65fad6a7709556,Shiras Park,46.557578,-87.379746
584204204e65fad6a770955a,Laughing Fish Point Beach,46.536332,-87.012153
584204204e65fad6a7709555,Shelter Bay,46.473489,-86.941604
584204204e65fad6a7709554,Au Train Bay,46.448116,-86.855181
584204204e65fad6a7709553,Twelve Mile Beach,46.587725,-86.361455
584204204e65fad6a7709552,Grand Sable Dunes,46.661215,-86.06782
584204204e65fad6a7709550,"Grand Marais Beach, Michigan",46.681809,-85.973937
584204204e65fad6a7709551,Lake Superior Campground Beach,46.6798,-85.745064
584204204e65fad6a770954f,Muskallonge Lake State Park,46.679969,-85.627584
584204204e65fad6a770954d,Whitefish Bay,46.453772,-84.783383
584204204e65fad6a770958d,Horseshoe Bay,45.95395,-84.72917
584204204e65fad6a770958c,Mackinac Island,45.86727,-84.610387
584204204e65fad6a770958e,De Tour,45.963169,-84.050696
584204204e65fad6a770958b,P.H. Hoeft State Park,45.468502,-83.87992
584204204e65fad6a770958a,Rogers City Beach,45.419559,-83.8062
584204204e65fad6a7709589,Thompson Park,45.350468,-83.575278
584204204e65fad6a7709588,Bayview Park,45.05778,-83.43158
584204204e65fad6a770956f,South Shore- Manitoulin Island,45.597543,-82.153855
584204204e65fad6a77094d6,Fort Wilkins State Park,45.785591,-84.74835
584204204e65fad6a77094d8,Trails End Bay,45.754538,-84.794644
584204204e65fad6a77094da,Charlevoix,45.320789,-85.26552
640a2d1599dd44ff0dfe7734,Seol Choix Point,45.9188,-85.9115
584204204e65fad6a770951a,Garden Peninsula,45.66211,-86.58758
584204204e65fad6a770951b,Rock Island,45.405882,-86.819367
640a2d1ab6d76963834c7c7d,The Zoo,46.5861,-87.4023
584204204e65fad6a7709547,Neys Provincial Park,48.725374,-86.582859
584204204e65fad6a770954b,Red Sucker Point,48.765584,-86.467886
584204204e65fad6a770954c,Pukaskwa National Park,48.54339,-86.270368
584204204e65fad6a770954e,Lake Superior Park/Gargantua,47.555238,-84.958497
584204214e65fad6a7709bbe,Banc de Pabos,48.369,-64.59
584204204e65fad6a7709b6f,Dennis Beach,45.629,-64.848
640a39604519054ed99b10c7,Black River,45.2638,-65.7868
584204204e65fad6a7709b6e,Mispec Beach,45.204,-65.964
640a3952606c458b58aefe14,Anthony's Cove,45.2276,-66.0091
640a3954b6d769afd54f92b2,Checkers,45.2496,-66.014
640a3956b6d769f0394f935d,The Pit,45.254,-66.0213
640a395bb6d76922434f94af,Bayshore Beach,45.2457,-66.0758
640a3958606c458147aeffa4,Breakwaters,45.2582,-66.0183
640a395945190508fb9b0f07,Courtenay Bay,45.2704,-66.0241
640a395db6d7691d594f951e,Saints Rest Beach,45.2253,-66.1171
640a395e606c457ea6af0122,New River Beach,45.1333,-66.5326
640a396b45190556929b147e,Cap Alright,47.392219,-61.771
640a396de9203005de9c3fbe,Point Aux Loups,47.52858,-61.71456
63769b6850c416a117c76686,Old Harry,47.57842,-61.46951
640a3965451905e5b89b129d,Cape Ray,47.625543,-59.27824
640a3968451905439a9b1385,Bears Cove,49.838786,-56.57403
640a396699dd44790a0193fe,New Melbourne,48.047486,-53.15149
63729c26fc401c6f89c7ab3b,St Vincent's Beach,46.788778,-53.63767
640a396ab6d7696c234f991a,Biscay Bay,46.742703,-53.28798
584204204e65fad6a77094d0,Point Michaud,45.5846,-60.68454
584204204e65fad6a7709b65,Chandeleur Islands,29.894,-88.823
584204204e65fad6a7709b5d,Dauphin Island,30.229,-88.117
584204204e65fad6a7709b60,West Pass,30.239,-87.737
584204204e65fad6a7709b5f,Terry's Cove,30.269,-87.58
584204204e65fad6a7709b62,Alabama Point,30.27,-87.562
584204204e65fad6a7709b61,Spuds,30.273,-87.549
5842041f4e65fad6a7708b07,Bungalows,30.27406893266753,-87.5436749948929
5842041f4e65fad6a7708aff,First Parking Lot,30.29345899260828,-87.43546812169637
5842041f4e65fad6a7708b01,Sandy Key,30.29513397370759,-87.42642359089679
5842041f4e65fad6a7708b00,Johnsons Beach,30.29767401311303,-87.41361598257893
5842041f4e65fad6a7708b06,Pickens Point,30.32739721382043,-87.30406515493348
5842041f4e65fad6a7708b04,Pickens Point Dunes,30.31482647791307,-87.26163894669438
5842041f4e65fad6a7708b05,Slabs,30.32632110836516,-87.16019503253068
5842041f4e65fad6a7708afc,Pensacola Pier,30.32703176167034,-87.14196
5c5382c9dc2e2000015732f4,Pensacola Beach,30.334435324796388,-87.11094
5842041f4e65fad6a7708b03,Navarre Pier,30.377504907388026,-86.86444
5842041f4e65fad6a7708afd,Navarre Beach,30.37920054094992,-86.85583
5842041f4e65fad6a7708afe,Blue Horizon Motel,30.39491626029151,-86.61248004999744
5842041f4e65fad6a7708afb,Dead Man's,30.39281125722673,-86.59766184693287
5842041f4e65fad6a7708afa,Okaloosa Pier,30.39024516541047,-86.59341
5842041f4e65fad6a7708af9,NCO Club,30.38655981578935,-86.52475380603576
5842041f4e65fad6a7708af5,Jetty East,30.38090573159031,-86.50654862060082
5842041f4e65fad6a7708af7,Two By Fours,30.38124006131522,-86.50052254675529
5842041f4e65fad6a7708af6,HMO's,30.37584509640838,-86.50563273884252
5842041f4e65fad6a7708af1,The Back Porch,30.382815988547186,-86.45838975906372
5842041f4e65fad6a7708af8,The Pumphouse,30.38250751017554,-86.45775957227345
5842041f4e65fad6a7708af4,Old Crystal Pier,30.38120596658251,-86.43045768307817
5842041f4e65fad6a7708aef,Pompano Joe's,30.37677202831587,-86.38513326644897
5842041f4e65fad6a7708af3,Whale's Tail,30.37521499110326,-86.37169944119874
5842041f4e65fad6a7708af0,Seascape,30.37429731725911,-86.36686966905461
5842041f4e65fad6a7708aee,Blue Mountain Beach,30.33661488976303,-86.20094370184573
5842041f4e65fad6a7708aed,Grayton Beach,30.32686082481946,-86.16650590275447
5842041f4e65fad6a7708aec,Bud and Alley's,30.31815542759119,-86.1383771867044
5842041f4e65fad6a7708aeb,Inlet Beach Pier,30.2676205895555,-85.9938578144113
5842041f4e65fad6a7708af2,Panama City Pier,30.21207176798612,-85.87989730830542
5842041f4e65fad6a7708881,"Spyglass Dr., Panama City",30.20276320866628,-85.85626528676136
5842041f4e65fad6a7708aea,Wood Pier,30.18877050526983,-85.83243530466363
5842041f4e65fad6a7708ae9,Spinnaker,30.16781531760227,-85.79604918824084
5842041f4e65fad6a7708ae8,St. Andrew's Park,30.12396111446713,-85.73636797034509
5842041f4e65fad6a7708ae5,Shell Island,30.11752500931267,-85.7306039427457
5842041f4e65fad6a7708ae7,D.J.'s,29.94901514702268,-85.43042978529013
5842041f4e65fad6a7708ae4,Mexico Beach,29.94810928551321,-85.42545434612366
5842041f4e65fad6a7708b7c,El Governor,29.94036477533054,-85.40953557392244
5842041f4e65fad6a7708b7a,Cape San Blas,29.67671206577928,-85.3689474172784
5842041f4e65fad6a7708b7d,Toilet Bowls,29.68231979841189,-85.30627194238092
5842041f4e65fad6a7708b7e,St. George Island,29.6607153445246,-84.86361191991014
5842041f4e65fad6a7708b7f,Dog Island,29.77441172865639,-84.65942657000329
584204204e65fad6a77096c1,Honeymoon Island,28.060771,-82.830148
5842041f4e65fad6a7708b08,880,27.99627311846992,-82.82942
5842041f4e65fad6a7708b09,Pier 60,27.97779860371595,-82.83246509090527
5842041f4e65fad6a7708b0a,Sand Key,27.96296387618043,-82.8332635965418
5842041f4e65fad6a7708b0b,Belleair,27.92492619212885,-82.8449122845279
5842041f4e65fad6a7708b0c,Indian Rocks Beach,27.882,-82.854
5842041f4e65fad6a7708b0d,Redington Breakwater,27.83106104966094,-82.83550218771384
5842041f4e65fad6a7708b0f,Redington Pier,27.82174178852146,-82.83148664631841
640a441fb6d76976455256eb,Maderia Beach ,27.7954,-82.7985
640a441d606c450d59b1c106,Treasure Island,27.7674,-82.7739
5842041f4e65fad6a7708b0e,Middle Jetty,27.74369029906206,-82.76053473435867
5842041f4e65fad6a7708b1a,Sunset Beach,27.7390348493064,-82.75763
5842041f4e65fad6a7708b28,Upham Beach Park,27.73496421495629,-82.75268962468695
640a442299dd441aa104527e,Pass-A-Grille Jetty,27.6833,-82.7391
6418e65a970272ab288883ed,Sunshine Skyway Bridge,27.625,-82.6584
5a74f3e3030a82001dc5dee8,Spring Ave.,27.52492857706454,-82.73753
5842041f4e65fad6a7708b19,Holmes Beach Pier,27.49680446426314,-82.7140145455959
5842041f4e65fad6a7708b1d,Twin Piers,27.46077315206043,-82.69924
5842041f4e65fad6a7708b1c,Coquina Jetties,27.45365831548911,-82.69609
5842041f4e65fad6a7708b26,Whitney Beach,27.427134501874612,-82.68110766159296
5842041f4e65fad6a7708b10,Lido Beach,27.31496308261514,-82.5830466912004
5842041f4e65fad6a7708b11,Coolidge,27.31122010159892,-82.57833234007632
5842041f4e65fad6a7708b12,Siesta Key,27.26471672017615,-82.55464835167173
5842041f4e65fad6a7708b13,Stickney Point,27.24638693488133,-82.53809115716797
5842041f4e65fad6a7708b14,Turtles,27.21907878229092,-82.51813937562073
5842041f4e65fad6a7708b15,Venice Jetties North,27.11375765852028,-82.47039
5842041f4e65fad6a7708b16,Venice Jetties South,27.111485758834025,-82.46756550419744
5842041f4e65fad6a7708b17,Venice Pier,27.07249378831575,-82.4530285256104
5842041f4e65fad6a7708b1e,Englewood,26.91007316019612,-82.35352
5842041f4e65fad6a7708b1f,Knight's Point,26.88221101560038,-82.3359828282636
5842041f4e65fad6a7708b1b,Gasparilla Point,26.80347307599041,-82.28564775623539
5842041f4e65fad6a7708b22,Boca Grande,26.71713432926596,-82.26287777058234
5842041f4e65fad6a7708b21,Redfish Pass,26.55130241615096,-82.20222762415648
5842041f4e65fad6a7708b20,Tween Waters,26.51219285784982,-82.1928203289264
5842041f4e65fad6a7708b23,Blind Pass,26.47856785808584,-82.181288592828
61df5f9b661e2813201cd40d,Big Hickory Pass,26.36463750682208,-81.86325
5842041f4e65fad6a7708b24,The Wall,26.25358330618783,-81.82429246081317
5842041f4e65fad6a7708b25,Doctor's Pass,26.17456407516186,-81.81588575623482
5842041f4e65fad6a7708b27,Doctor's Pass (South Jetty),26.17300183052463,-81.81515842430267
5842041f4e65fad6a7708b29,Naples Pier,26.13144856766723,-81.8090395116521
640a396f99dd44aefd01965e,Florida Keys Reef,24.4934,-81.6754
640a397d4eb37503bb92c4db,Viejo y el Mar,23.0965,-82.4948
640a397ae9203005649c4366,El Cayo,23.0997,-82.4568
640a3978e920306a2a9c42cc,La Setenta (Playa 70),23.1118,-82.4425
640a397c606c4500d8af098c,El Bajo (Malecon),23.1367,-82.4084
640a3975b6d76918504f9c29,La Habana,23.1492,-82.3878
640a397f606c458645af0a5d,Playas del Este,23.1721,-82.1532
640a3984e9203044fc9c45cc,Sun Beach,23.1937,-81.1729
640a398299dd4496f5019b8b,Cayo Coco,22.5252,-78.4903
5842041f4e65fad6a7708c66,Old Man's,23.09289784805277,-82.49361057903533
601c7f8abbb50917f33fceb1,Palmetto Pavilion,26.350618,-80.0692
5842041f4e65fad6a770887d,Deerfield Beach Pier,26.31719311695038,-80.07452525176168
5842041f4e65fad6a7708add,Hillsboro Beach,26.29705672965111,-80.07612393274484
5842041f4e65fad6a7708adb,Hillsboro Inlet,26.25486382031396,-80.0805
5842041f4e65fad6a7708ac8,Pompano Pier,26.23467460139735,-80.08739675534814
5842041f4e65fad6a7708ac6,Commercial Pier,26.18920557475824,-80.09224470008016
584204214e65fad6a7709d1e,NE 14th Ct.,26.145745,-80.101269
5842041f4e65fad6a7708ac5,Spoils,26.0971397396683,-80.10298876028907
5842041f4e65fad6a7708ac4,John Lloyd State Park,26.09086461141498,-80.10728410144065
5842041f4e65fad6a7708ac2,Dania Pier,26.058022412197,-80.10873562327671
5842041f4e65fad6a7708ac3,Franklin Street,26.04825428257198,-80.11153150137932
5842041f4e65fad6a7708ad9,Haulover Inlet (North Jetty),25.90147392328634,-80.12110769748688
5842041f4e65fad6a7708ad8,Haulover Inlet (South Jetty),25.897806453088073,-80.1211827993393
62ed918748de3e3e76ea08b8,Surfside,25.882368358877144,-80.11973
5842041f4e65fad6a7708ada,85th Street,25.87049374242476,-80.11828560342356
584204214e65fad6a7709d10,40th St.,25.812164,-80.12082
5842041f4e65fad6a7708ac0,30th Street,25.80407401902198,-80.1222227290161
5842041f4e65fad6a7708ad7,21st Street,25.795157990715975,-80.12527585029602
5842041f4e65fad6a7708ad6,5th Street,25.77468432731322,-80.12884045797499
5842041f4e65fad6a7708ac1,South Beach,25.76570280215999,-80.12983304957051
584204214e65fad6a7709d11,Key West,24.567235,-81.774749
5842041f4e65fad6a7708ace,Coral Cove Park,26.96418190555367,-80.07769168113562
5842041f4e65fad6a7708b77,Jupiter Inlet,26.94256932088346,-80.0705677063405
5842041f4e65fad6a7708b6f,Civic Center,26.93134670517399,-80.06760115579169
5842041f4e65fad6a7708ae0,Corners,26.92746505629809,-80.06721138954163
5842041f4e65fad6a7708b70,Kite Beach,26.90524197396177,-80.0593609780092
5842041f4e65fad6a7708b78,Juno Pier,26.89365359499372,-80.056
5842041f4e65fad6a7708b6d,Ocean Reef Park,26.79441490392914,-80.0306161110009
5842041f4e65fad6a7708b69,Pumphouse,26.775154329102108,-80.03124833106995
5842041f4e65fad6a7708ae1,The Cove,26.76983179886943,-80.03413481937037
5842041f4e65fad6a7708879,Reef Road,26.76346795333825,-80.0360655784607
5842041f4e65fad6a7708b6a,Sunrise,26.72114353296791,-80.03310374527736
5842041f4e65fad6a7708b6b,Breakers,26.71306786153966,-80.03222170715443
5842041f4e65fad6a7708b7b,Flagpole,26.706551543472415,-80.03280401229858
5842041f4e65fad6a7708acf,Palm Beach,26.7029496416037,-80.0318372872607
5842041f4e65fad6a7708b6c,Charlie's Crab,26.699075556703683,-80.03263235092163
5842041f4e65fad6a7708acd,Hilton Hotel Backyard,26.62215707439298,-80.03599398392342
5842041f4e65fad6a7708b72,Lake Worth Pier,26.613511029817357,-80.03534198871253
5842041f4e65fad6a7708ad5,Lantana Public Beach,26.5848450388814,-80.03649735753257
5842041f4e65fad6a7708adf,Boynton Beach Inlet (Northside),26.54593873498907,-80.04104359585143
5842041f4e65fad6a7708b71,Boynton Beach Inlet (Southside),26.54279208054373,-80.04292130470276
5842041f4e65fad6a7708ad2,Delray Beach,26.45661880078336,-80.05699952321751
5842041f4e65fad6a7708acb,Atlantic Dunes Park,26.44179551370651,-80.05928855229453
5842041f4e65fad6a7708ae3,Japanese Rock,26.39224485175123,-80.0650461233983
5842041f4e65fad6a7708ade,Red Reef Park,26.36569956413266,-80.06717936869391
5842041f4e65fad6a770887c,Boca Raton Inlet,26.336499228484,-80.06956100463
640a44274eb375f372957ef9,Blue Heron Beach,27.4327,-80.2785
5842041f4e65fad6a7708b76,Blind Creek Park,27.36627923374593,-80.24622
5842041f4e65fad6a7708abf,Walton Rocks,27.34018197146798,-80.23278
5842041f4e65fad6a7708876,Jensen Beach,27.25392904143517,-80.19455
5842041f4e65fad6a7708b75,Stuart Public Beach,27.21467611230439,-80.17308280299079
5842041f4e65fad6a7708ad3,Fletcher's,27.205685534312778,-80.16826629638672
584204204e65fad6a7709463,Bathtub Beach,27.18569820023617,-80.1594203710556
5842041f4e65fad6a7708b73,Hobe Sound Public Beach,27.06670219261476,-80.11447191238403
5842041f4e65fad6a7708ad0,Blowing Rocks,26.97679878167375,-80.08141631388132
5842041f4e65fad6a7708aa7,Playalinda,28.64397251741012,-80.62328519781694
5842041f4e65fad6a7708aa9,Kennedy Space Center,28.49083243010974,-80.58001715986319
5842041f4e65fad6a7708aa8,Jetty Park,28.406142,-80.588858
5842041f4e65fad6a7708872,Cocoa Beach Pier,28.367707417566,-80.60171
584204214e65fad6a7709bc6,Shepard Park,28.35798327779001,-80.60312747955322
5842041f4e65fad6a7708aab,Lori Wilson Park,28.336757013024314,-80.60568
5842041f4e65fad6a7708ac7,16th St. South,28.289851576629342,-80.6063
5842041f4e65fad6a7708ab8,Picnic Tables,28.26664623907351,-80.60448467731476
5842041f4e65fad6a7708abc,2nd Light,28.252541991968208,-80.60269
5842041f4e65fad6a7708abe,Hangar's Beach,28.2423394657007,-80.60104
584204214e65fad6a7709cbc,Seagull,28.20565382092329,-80.59559
5842041f4e65fad6a7708ab9,Perkins,28.200840983180232,-80.59493
584204214e65fad6a7709cbd,Hightower Beach,28.194479955963217,-80.59329718351364
5842041f4e65fad6a7708aba,RC's,28.185652556759443,-80.59154
5842041f4e65fad6a7708e3d,Pet Den,28.173651420513053,-80.58847188949585
584204214e65fad6a7709d12,Pelican Beach Park,28.167607,-80.58634
584204214e65fad6a7709cc6,Bicentennial Beach Park,28.1536938319626,-80.583343505859375
584204214e65fad6a7709cc5,Indian Harbour Beach,28.147374729793007,-80.58183
584204214e65fad6a7709cc4,Millennium Beach Park,28.142895320006676,-80.580575466156
584204214e65fad6a7709cc3,Patsy's,28.139778070025603,-80.57958841323853
584204214e65fad6a7709cc2,Canova Beach,28.138434644491568,-80.57924509048462
5842041f4e65fad6a7708ab7,The Radisson,28.135426226217064,-80.57895541191101
584204214e65fad6a7709cc1,Paradise Beach,28.123220594039058,-80.57516813278198
584204214e65fad6a7709cc0,Watson Dr.,28.09570114367762,-80.56629538536072
5842041f4e65fad6a7708873,Indialantic,28.091782738658846,-80.56479
5842041f4e65fad6a7708e1a,Ocean Ave.,28.06856278147022,-80.55486718495823
584204214e65fad6a7709cbf,North Spessard Holland,28.055080976526234,-80.54996609687805
5842041f4e65fad6a7708ab2,Spessard Holland,28.047705032021486,-80.54680109024048
584204214e65fad6a7709cbe,Coconut Point Park,28.022884436459496,-80.53521
584204214e65fad6a7709cbb,Ponce De Leon Park,28.010704057685366,-80.52931
5842041f4e65fad6a7708abd,Bonsteel Park,27.901611308716447,-80.4697
5842041f4e65fad6a7708aa6,Spanish House,27.876230736320828,-80.4551
5842041f4e65fad6a7708a9f,Sebastian Inlet,27.862962005874696,-80.44668
5842041f4e65fad6a7708aad,Wabasso,27.76388821683801,-80.3962958234027
5842041f4e65fad6a7708ab1,Vero Pier,27.670121806659253,-80.36026954650879
5842041f4e65fad6a7708aaf,Riomar,27.644996047720046,-80.35242676734924
5842041f4e65fad6a7708aae,P.V. Martin's,27.521583322459,-80.30987620353699
5842041f4e65fad6a7708aa3,Ft. Pierce Inlet,27.47531255634912,-80.28914
5842041f4e65fad6a7708a9c,Bicentennial Park,29.33976495417899,-81.0606
5842041f4e65fad6a7708aa4,Ormond Beach,29.29239875585548,-81.0386
5842041f4e65fad6a7708aa1,Main Street North,29.22878213864532,-81.00551
5a2879d79caa98001b09d0e8,Main Street South,29.22581898657536,-81.0058
5842041f4e65fad6a7708aa2,Daytona Beach,29.21860397328164,-81.0019
5d684368ca6fb80001fabcec,Sunglow Pier Northside,29.147693169135415,-80.96429
5842041f4e65fad6a7708a9a,Sunglow Pier,29.146475528378218,-80.96347
5bc4b6b6fed3c400017ed0de,Wilbur By The Sea,29.133654252107267,-80.95531225204468
5842041f4e65fad6a7708a9d,Ponce Inlet,29.08257353385602,-80.92136998257725
5842041f4e65fad6a7708871,New Smyrna Beach,29.069417851135093,-80.90824
5842041f4e65fad6a7708a96,Flagler Ave.,29.03874288905362,-80.8933424949646
5842041f4e65fad6a7708a95,Bethune Beach,28.95125170929067,-80.83837
5842041f4e65fad6a7708a92,Ft. Clinch State Park,30.69983581209126,-81.42483
640a44234eb375006b957e15,Reefer,30.6783,-81.4285
5842041f4e65fad6a7708a91,Main Beach,30.66753984549761,-81.42983
5842041f4e65fad6a7708a93,Amelia Pier,30.62059700777582,-81.437252942757425
5cd9d8134cc9790001e88b16,Peters Point,30.599466508881527,-81.44293
5cd9db99ce105e0001aaa4cb,American Beach,30.576698733953553,-81.44364
5842041f4e65fad6a7708a90,Talbot Island,30.47788918872762,-81.41055821335078
5842041f4e65fad6a7708a8f,Huguenot Park (North Jetty),30.40517712722211,-81.40074116169004
5842041f4e65fad6a7708a8e,Blue Roofs,30.390516,-81.395591
5842041f4e65fad6a7708a8d,Mayport Poles,30.381793,-81.39686
5842041f4e65fad6a7708a8c,18th Street,30.34696027700899,-81.39451
5842041f4e65fad6a7708a98,Atlantic Beach,30.332297686992757,-81.39319
584204214e65fad6a7709d0f,Neptune Beach,30.32468915287104,-81.39229204475505
5842041f4e65fad6a7708aa0,Jacksonville Beach Pier,30.292626880836885,-81.38579
584204214e65fad6a7709bc7,8th Ave. South,30.281250120235736,-81.3839
5842041f4e65fad6a7708a8b,Sawgrass,30.19308537587637,-81.36314247820911
5842041f4e65fad6a7708a8a,Crossroads,30.16227112983666,-81.35502907491218
5842041f4e65fad6a7708a9b,Gate Station,30.02251238001095,-81.32183077344881
5842041f4e65fad6a7708aa5,Vilano,29.91629441498523,-81.28801
5842041f4e65fad6a7708a89,Blowholes,29.89149785916623,-81.2723223244215
5842041f4e65fad6a7708a99,Middles,29.87530059952514,-81.26757958498874
5842041f4e65fad6a7708a87,Anastasia Park (The Entrance),29.86618162637438,-81.2662150259608
584204204e65fad6a77096b2,St. Augustine Pier,29.856947256612283,-81.26364827156067
5842041f4e65fad6a770886f,A St.,29.844757212379562,-81.26136
5842041f4e65fad6a7708a81,Crescent Beach,29.76878537149042,-81.25109
5842041f4e65fad6a7708a7e,Matanzas Inlet,29.70405364733744,-81.22426004725459
584204204e65fad6a7709327,Flagler Beach Pier,29.48029,-81.125261
640a4425e9203012ab9efd24,Apollo Beach,28.93551,-80.82752
648cd64659a14e5edf2e268b,North Jetty,32.0239,-80.8413
5842041f4e65fad6a7708a61,Sugar Shack,32.01226,-80.83983
5842041f4e65fad6a7708a6f,Tybee Island Pier,31.99153112815895,-80.84543050470074
5842041f4e65fad6a7708a62,18th St. Jetty,31.98722842396969,-80.84773
5842041f4e65fad6a7708a60,South Tybee Sandbars,31.9812255780179,-80.84773973467009
5842041f4e65fad6a7708a5f,Little Tybee Island,31.96738675414547,-80.86977980706155
5842041f4e65fad6a7708a5e,Wassaw Island/North End,31.90593619092352,-80.93589231700857
5842041f4e65fad6a7708a5b,Wassaw Island/South End,31.85953587631629,-80.99031310336719
5842041f4e65fad6a7708a5d,Ossabaw Island,31.76502169596568,-81.07655443806622
5842041f4e65fad6a7708a5c,St. Catherines Island,31.62535662342983,-81.13328352167974
5842041f4e65fad6a7708a5a,Blackbeard Island,31.46684389030369,-81.2100056410468
5842041f4e65fad6a7708a59,Cabretta Island,31.4231993614213,-81.24725340591522
5842041f4e65fad6a7708a57,Sapelo Island,31.39261761368919,-81.26190520231917
5842041f4e65fad6a7708a55,Wolf Island,31.33550077186516,-81.28383377408417
5842041f4e65fad6a7708a56,Little St. Simons Island,31.2704493877174,-81.27324039152315
5842041f4e65fad6a7708a53,Sea Island,31.20076299997009,-81.32629
5842041f4e65fad6a7708a52,Harbor Marker Buoys,31.16212806376699,-81.32512426500224
5842041f4e65fad6a7708a54,St. Simons Island,31.13553222995767,-81.38457634790909
5842041f4e65fad6a7708a51,Jekyll Island,31.10585419260024,-81.40422767604812
5842041f4e65fad6a7708a4f,Cumberland Island,30.85132684893727,-81.42283496231143
5842041f4e65fad6a7708a7d,Hilton Head Island,32.14365226036034,-80.74402
640a4484606c455d44b1dbc9,Burkes Beach,32.1917,-80.6953
5842041f4e65fad6a7708a7c,Fripp Island,32.31115640606869,-80.48564
5842041f4e65fad6a7708a79,Hunting Island,32.366270751262,-80.43911
5842041f4e65fad6a7708a78,Edisto Beach,32.51356930575787,-80.28223
5842041f4e65fad6a7708a77,Kiawah Island/Seabrook Island,32.595,-80.088
5842041f4e65fad6a7708a7a,Folly Beach Pier,32.65337734408365,-79.93983
5842041f4e65fad6a7708a75,10th Street,32.66166297145973,-79.91951806398808
5842041f4e65fad6a7708a85,Washout,32.66829212943039,-79.90735
5842041f4e65fad6a7708a84,Bert's Bar,32.75733539419244,-79.83258856064796
5842041f4e65fad6a7708a86,The Pier/Windjammer,32.78452968219067,-79.78540233488354
5842041f4e65fad6a7708a82,Wild Dunes,32.80251718689188,-79.73221919500764
5842041f4e65fad6a7708a66,Dewees Island,32.831,-79.71
5842041f4e65fad6a7708a6e,Bull Island,32.90929771158952,-79.57810400297359
5842041f4e65fad6a7708a70,Cape Romain,33.03478144356316,-79.35021028265125
5842041f4e65fad6a7708a76,South Island,33.16729555197199,-79.19829236867845
5842041f4e65fad6a7708a6d,North Island,33.29001727666697,-79.17190003352977
640a447f451905f3469de9ea,Debordieu,33.3827,-79.147
5842041f4e65fad6a7708a6c,The South End,33.39537062495087,-79.13835037835189
5842041f4e65fad6a7708a7b,South Jetty,33.41209545530049,-79.13026341393126
5842041f4e65fad6a7708a71,The Pier,33.43231073271028,-79.11789
5842041f4e65fad6a7708a72,South Litchfield,33.45423621397969,-79.10497798178424
5842041f4e65fad6a7708a6b,North End,33.49041958261793,-79.07666070599386
640a4479606c450556b1d914,Garden City Pier,33.5754,-78.9964
640a4481b6d7691557526fff,Surfside Beach,33.6027,-78.9717
640a447be92030a8109f135f,Springmaid Beach,33.65594,-78.91747
5842041f4e65fad6a7708a74,Myrtle Beach,33.68628680045124,-78.883460274301
640a447699dd44153a0468fa,Dunes Cove,33.7535,-78.7953
640a447e99dd442f7e046a86,27th Ave/North Myrtle,33.8005,-78.7108
5842041f4e65fad6a7708a67,Cherry Grove Pier,33.82924423172106,-78.62813
584204204e65fad6a77094d3,Ocean Isle,33.885834,-78.43408
5842041f4e65fad6a7708a48,South Brunswick Beaches,33.91108837766468,-78.29653
5842041f4e65fad6a7708a47,Oak Island,33.90373404124834,-78.08241431707907
6418df8193265baff2180755,Camp Lejeune,34.586,-77.238
600f46359af50552cf55c292,Onslow Beach,34.5704,-77.2686
600f46a32e461f16d1e5b6fc,Seaview Pier,34.50245454,-77.39621
5842041f4e65fad6a7708a4b,Topsail Beach,34.46776662988774,-77.47083191635772
5842041f4e65fad6a7708a58,Surf City Pier,34.42458783809001,-77.54492
600f62e4541a20227e1f001b,Jolly Roger Pier,34.36455234,-77.62704
5842041f4e65fad6a7708a69,Figure Eight and Shell Islands,34.27197439666496,-77.74050223196774
600f673efcab847c57980367,North End Wrightsville Beach,34.2336061,-77.77375
5fcab5a2a6d4044cc722ed90,Johnnie Mercers Pier,34.213208,-77.78638
5842041f4e65fad6a7708a65,"C Street, Wrightsville Beach",34.20859853336924,-77.79293
600f692089fb0f186a4a687d,Blockade Runner,34.20249978,-77.79675
5842041f4e65fad6a7708a73,Crystal Pier,34.19316590251396,-77.8045
600f6a01087e451ecc8ad56f,"South End, Wrightsville Beach",34.19014239,-77.80598
5ff7c329c2e8fbe32fb3c7d8,Masonboro Island,34.173806,-77.81933
5842041f4e65fad6a7708a49,Carolina Beach Pier,34.05683595651973,-77.88128
600f6d2931b38bf90eba4c0a,Pelican Watch,34.02085006,-77.89609
5842041f4e65fad6a7708a64,"Alabama Ave., Kure Beach",34.013473721006676,-77.8991
5842041f4e65fad6a7708a4a,Fort Fisher,33.96841191816696,-77.9180242565498
584204204e65fad6a770997f,Bogue Inlet Pier,34.65844440987143,-77.03417
5842041f4e65fad6a7708a4c,Iron Steamer,34.69270354752445,-76.82854854446575
584204204e65fad6a7709992,Oceanana Pier,34.6951979926116,-76.72782897949219
5842041f4e65fad6a7708a50,Cape Lookout National Seashore,34.686741128540874,-76.47516712138378
5842041f4e65fad6a7708a3f,Pea Island,35.71680821253768,-75.49243
5842041f4e65fad6a7708867,S-Turns,35.605833221351425,-75.46303
600b60d837bb761420e6522d,Sea Haven,35.59275191,-75.46229
584204214e65fad6a7709d1b,Rodanthe Pier,35.585,-75.461
600b62e6033373353938e2b4,Sea Isle Hills,35.56738186,-75.4606
5842041f4e65fad6a7708a3a,Waves and Salvo,35.54572934093336,-75.46477
5842041f4e65fad6a7708a3d,Avon Pier,35.34721340158342,-75.50084
600b646920c3778405a2aeeb,Askins Creek,35.32217425,-75.50646
600b66662c5fa85df2e3042e,Kite Point,35.292582,-75.5169
600b67a4104f3cdf8edfecb9,Canadian Hole,35.27680881,-75.5163
5a1c8af1fa245a001a43d45a,North Buxton,35.26673297347769,-75.51780939102173
5842041f4e65fad6a7708a38,Cape Hatteras Lighthouse,35.254619418229026,-75.52074
5842041f4e65fad6a7708a3b,Frisco,35.22565892751075,-75.63606
58bdf00c82d034001252e3d4,Summerplace Dr.,35.21280720597977,-75.67917
600b69829dfc94309cf577ef,Hatteras Ferry Docks,35.20391351,-75.70381
5842041f4e65fad6a7708a3c,Ocracoke,35.13086,-75.90591
5842041f4e65fad6a7708a46,Corolla,36.37660668125033,-75.82409701687456
5842041f4e65fad6a7708a45,Duck Pier,36.18220630068973,-75.75013580649097
5d1bc8d1a2d2120001291e9b,Southern Duck,36.158422247301424,-75.74010848289925
5842041f4e65fad6a7708a44,Kitty Hawk Pier,36.10126676607491,-75.71107462163894
5d9ba5cad154fd00019c2361,"Bennett St, Kitty Hawk",36.092008339061884,-75.70526807934573
584204204e65fad6a7709990,Eckner Street,36.08823160433465,-75.70172309875488
5842041f4e65fad6a7708a43,Old Station/Laundromats,36.06829910590498,-75.6899
5c8c13f0635df600015e2785,Black Pelican,36.065420513718614,-75.68848
600b286a17b9a7bc362c6037,Hayman Blvd,36.04860288,-75.6765
5842041f4e65fad6a7708a41,Avalon Pier,36.0439998039079,-75.67288
600b2b8f2e8c2ae34a367771,Fifth Street,36.03995021,-75.67115
5842041f4e65fad6a7708863,Third Street,36.034151543144,-75.66791
600b3c34033373013938e293,Second Street,36.03282161,-75.66643
5842041f4e65fad6a7708a42,First Street,36.03043116489792,-75.66413
584204204e65fad6a7709464,Bath House,36.01599221232585,-75.65344
600b485717b9a78b1f2c6042,Martin St.,36.00662665,-75.65028
600b4a3374e32428653a1c3f,Eighth Street,35.99500972,-75.64372
584204214e65fad6a7709ce8,Abalone St.,35.987343,-75.63862
600b4c329dfc94bdbaf577d0,Bonnett St.,35.97991227,-75.63485
5842041f4e65fad6a7708a40,Nags Head Pier,35.97427620657821,-75.62984
600b4dd0127c757fc86564f1,Loggerhead St.,35.94173501,-75.61366
584204204e65fad6a7709a9e,"Jennette's Pier, Northside",35.91081086393117,-75.59549
584204204e65fad6a7709981,"Jennette's Pier, Southside",35.90992900115943,-75.59298
600b4ef298b10187a83401e0,Outer Banks Fishing Pier,35.8854511,-75.58156
640a4473606c456797b1d7d7, Assateague Beach,37.8882,-75.3393
5842041f4e65fad6a7708a28,Fishermans Island,37.08612627584661,-75.976121638199
5842041f4e65fad6a7708a23,North End,36.9102212316428,-75.98732471466064
5842041f4e65fad6a7708a27,South End,36.84318777204769,-75.9719
584204214e65fad6a7709ce7,1st Street Jetty,36.83036135089083,-75.96648
584204214e65fad6a7709ce9,Croatan Jetty,36.82852360193767,-75.96877
5842041f4e65fad6a7708a26,Croatan to Pendleton,36.818257440557794,-75.96666
5842041f4e65fad6a7708a22,Camp Pendleton,36.81735875786576,-75.96624
5842041f4e65fad6a7708a24,Sandbridge Beach,36.737117517621314,-75.93923719853362
600b1f97b6558f622e14c0da,Little Island Fishing Pier,36.6941363,-75.92274
6307df22782926254d3d5210,Midtown,38.365050614750835,-75.07013
5842041f4e65fad6a7708a1b,North End to Ocean City Inlet,38.33889038664497,-75.08017670566352
5842041f4e65fad6a770886d,Ocean City Boardwalk,38.338461,-75.08117
5842041f4e65fad6a7708a1a,Assateague,38.148058,-75.17704
5842041f4e65fad6a7708a21,Naval Jetties,38.767837,-75.082841
5842041f4e65fad6a7708a20,Gordons Pond,38.75034741676525,-75.08194
640a447199dd44513a0467ca,Rehoboth Beach,38.7225,-75.0757
5842041f4e65fad6a7708a1f,Dewey Beach,38.697657,-75.075951
5842041f4e65fad6a7708a1c,Indian River Inlet,38.603993,-75.06271
5842041f4e65fad6a7708a1e,Bethany Beach,38.538767,-75.05619
5842041f4e65fad6a7708a1d,Fenwick Island,38.460477,-75.052069
640a445fb6d7693e975266df,Barnegat Light,39.7506,-74.1005
5842041f4e65fad6a7708a10,Hudson Ave.,39.692364,-74.14068
5b18410acaa322001aacd67a,Surf City,39.66170159321389,-74.16176
5842041f4e65fad6a770885b,Ship Bottom,39.65080599934257,-74.17146
5b215f6d59c0e0001b0618a9,Long Beach Township,39.576784061942895,-74.22471
5842041f4e65fad6a7708a0f,Holyoke,39.552472,-74.24344
5842041f4e65fad6a7708a0e,The Wooden Jetty,39.531319,-74.263252
5842041f4e65fad6a7708a0d,14th Street North,39.413485,-74.35476
58bdecc682d034001252e3d3,Seaside Road,39.37854673852825,-74.39923167228699
5842041f4e65fad6a7708a0b,Brigantine Jetty,39.37274173278517,-74.40454
5842041f4e65fad6a7708a06,Crystals,39.36353,-74.40873
5842041f4e65fad6a7708a0a,States Avenue,39.35929751441085,-74.41683
5842041f4e65fad6a7708a0c,South Carolina Avenue,39.356505,-74.42263
6418e42c93265bdb781900d7,St. James,39.3554,-74.4247
5842041f4e65fad6a7708a09,Ventnor Pier,39.336276,-74.47782
5842041f4e65fad6a7708a08,Margate Pier Northside,39.327688,-74.49524
5842041f4e65fad6a7708b5d,Sumner Avenue,39.321896,-74.506191
5842041f4e65fad6a7708a07,32nd Street,39.31443,-74.51863
5842041f4e65fad6a7708858,North End OC,39.28223089949212,-74.55766
5842041f4e65fad6a7708b5b,7th Street,39.276101,-74.56709
5aff31a7f7fc66001bd15a34,Central OC,39.274154402581395,-74.57061
5b02fe338bd590001bf55485,10th St.,39.274010019324514,-74.57325
5b02ff07b383ab001aa8cff3,11th St.,39.27303224775323,-74.57477
5b0336df824315001a1c2931,South End OC,39.222710360084214,-74.63431
5b0347809f631f001a00f0d9,Sherman Ave.,39.19318938537776,-74.6541044415365
5b03095ee967b4001b33027f,34th St.,39.15926332984506,-74.68544933713662
5bd1fab3ce4adf00012a4642,35th St. North,39.15890851995666,-74.68619585037231
5842041f4e65fad6a7708b5c,36th Street to 42nd Street,39.15774,-74.68639
5bd1f9e1fefe530001380b95,35th St. East,39.158675584395915,-74.68760132789612
5b030e7c7853b7001a901b2c,57th St.,39.1438443349055,-74.69722423943324
584204214e65fad6a7709c84,Avalon 10-14th Street,39.104,-74.705
5842041f4e65fad6a7708b5e,26th to 30th Street Pier,39.093673,-74.71653
5842041f4e65fad6a7708b5f,Nun's Beach,39.039903,-74.76417
5842041f4e65fad6a7708b61,2nd St. to 10th St.,38.99931,-74.78814
5842041f4e65fad6a7708b60,Rambler Road,38.96768,-74.82565
5b0335c7e967b4001b33028f,Diamond Beach,38.95484107377607,-74.84736
5842041f4e65fad6a7708b63,The Rocks,38.942988,-74.862452
5842041f4e65fad6a7708b65,Poverty Beach,38.942757,-74.880791
5842041f4e65fad6a7708b64,Queen Street,38.93036,-74.91257
5842041f4e65fad6a7708b62,Stockton Avenue,38.929886,-74.91718
5842041f4e65fad6a7708b67,Grant Street Beach,38.92870117926206,-74.92116
5842041f4e65fad6a7708b66,Broadway Beach,38.929441,-74.93129
5842041f4e65fad6a7708b68,The Cove,38.928934874358276,-74.93582
5842041f4e65fad6a7708a05,Sandy Hook,40.41754,-73.97935
5842041f4e65fad6a7708853,Monmouth Beach,40.330474,-73.9734
630d04654da1381c5cb8aeb7,Long Branch,40.3048,-73.9767
61d74f61620dd7a6afb318bc,Deal,40.241,-73.9922
5842041f4e65fad6a7708a03,Loch Arbour and Deal,40.229841,-73.996782
61d8c39b59bcde1454c75b7a,Dog Park,40.22788,-73.99582
61dcad87d8d80f5add72df95,Boardwalk,40.22348,-73.99704
61d8c5f96a05a5870dc4d0ba,Casino,40.217315,-73.99912
5842041f4e65fad6a7708a02,Asbury Park,40.217443,-73.99982
625611325cd9822674fe5031,Ocean Grove,40.213,-74.0009
5842041f4e65fad6a77089ff,Bradley Beach,40.1974229100932,-74.00650533798255
5842041f4e65fad6a77089fe,Avon,40.18834955871439,-74.00860982500222
5842041f4e65fad6a7708a01,"16th Ave., Belmar",40.17202,-74.01503
5842041f4e65fad6a77089fc,Spring Lake,40.152504,-74.021383
5842041f4e65fad6a77089fa,Sea Girt,40.1319,-74.02788
5842041f4e65fad6a7708856,Manasquan Inlet,40.113,-74.028
5842041f4e65fad6a7708a18,Jenkinson's,40.094041,-74.034859
5842041f4e65fad6a7708a17,Bay Head,40.0699319967757,-74.04144910856634
5842041f4e65fad6a7708bed,Mantoloking,40.028403115215,-74.04836654663
5842041f4e65fad6a7708a16,Lavallette,39.98313468342945,-74.06265685577506
5842041f4e65fad6a7708a15,Ortley Beach,39.95745637606704,-74.06736
5842041f4e65fad6a7708a14,Seaside Heights,39.946638,-74.06884
5842041f4e65fad6a7708857,Casino Pier,39.941519877445664,-74.06829
5842041f4e65fad6a7708a12,Seaside Park,39.91813588078152,-74.07527
5842041f4e65fad6a7708a11,Island Beach State Park,39.79614,-74.09248
5842041f4e65fad6a77089fb,Breezy Point,40.54698301868125,-73.9268
5842041f4e65fad6a7708852,Rockaways,40.58342841721757,-73.81182
5842041f4e65fad6a77089f8,84th Street,40.58456099581507,-73.80730032920837
5842041f4e65fad6a77089fd,30th - 39th Streets,40.591277,-73.770792
584204214e65fad6a7709d21,"West End, Long Beach",40.58317888918512,-73.69179
5842041f4e65fad6a77089f5,Laurelton Blvd.,40.58270702399518,-73.67251552079799
5842041f4e65fad6a7708850,Lincoln Blvd,40.582703230722,-73.65247
58dd748982d034001252e3dc,Pacific Blvd. ,40.58281730569218,-73.6407995223999
5842041f4e65fad6a77089e2,Lido Beach,40.58433,-73.62953
5842041f4e65fad6a77089ee,"West End, Jones Beach",40.57633275206492,-73.56895305108567
640a446fe92030b9ae9f10a8,Jones Beach State Park,40.59186,-73.50713
640a446c451905857f9de596,Tobay Beach,40.6096,-73.4241
5842041f4e65fad6a77089e4,Gilgo Beach,40.61695351251805,-73.39376
5842041f4e65fad6a77089e5,Robert Moses,40.62530081928036,-73.23827
5b2bd450dccc83001b2945d1,Fair Harbor,40.63650785479496,-73.18305
61dde4ddb4b2c3a4feaf631d,Atlantique Beach,40.64036,-73.17109
5842041f4e65fad6a77089e6,Fire Island,40.64313317632791,-73.15727
61ddc89c7c0a2277bc22e488,Ocean Beach,40.643419,-73.15463
630d15b94da1386a8cbcfefe,Ocean Bay Park,40.647928,-73.13683
61dde34e0d5ded2856fca851,Point O’ Woods,40.649379,-73.12779
5943589de98ad90013191e1d,Davis Park,40.684146289004,-73.00124
5ff7a8655ee637576fdcb1c9,Smith Point County Park,40.732939,-72.86227
5842041f4e65fad6a77089e8,Cupsogue,40.76653118828782,-72.74579619372713
584204214e65fad6a7709d07,Dune Rd. West,40.776524,-72.7079
5842041f4e65fad6a77089f7,K Road,40.83372943645748,-72.50426173210144
5842041f4e65fad6a77089f3,The Bowl,40.84077769766295,-72.47989493724765
584204204e65fad6a770945d,Coopers Beach,40.862803,-72.403986
5842041f4e65fad6a77089ea,Flys,40.887088,-72.338558
630d4aa0b0a14577f1a09ec7,Georgica Beach,40.9339739,-72.2166
584204204e65fad6a7709682,East Hampton Beach,40.94040868703374,-72.19686985015869
5842041f4e65fad6a77089f4,Main Beach,40.94235535243154,-72.19286
61d730c3b7c0673101486233,Indian Wells Beach,40.962199,-72.13652
640a446845190541689de4a0,Napeague Beach,40.9931,-72.0484
59e4fcf7149cf2001b850f34,Hither Hills State Park,41.00764478389438,-72.00916
5842041f4e65fad6a77089f6,Terrace,41.033752854071416,-71.93695522488403
640a44634eb3751e8a958ea1,Fortress,41.0347,-71.9286
5842041f4e65fad6a77089f1,Poles,41.038286691230795,-71.91991567611694
5842041f4e65fad6a77089ec,Ditch Plains,41.039505402729105,-71.9142
5842041f4e65fad6a77089eb,Trailer Park,41.0389266436591,-71.91068529316958
62e83ee344826a2de65b2a47,Camp Hero,41.05379,-71.87243
640a446599dd44ecab046444,Turtle Cove,41.0722,-71.8558
640a446199dd442b2f04627f,North Bar,41.0748,-71.8596
5842041f4e65fad6a7708ddc,Misquamicut State Beach,41.32227463715753,-71.80342
640a445d606c451bb8b1d11c,Dunes Park Beach,41.3287,-71.765
640a445645190595ee9ddf09,Weekapaug,41.3284,-71.7617
640a44584eb375dd11958ba2,East Beach,41.3447,-71.681
640a445345190525ac9dde13,Breachway,41.3541,-71.6393
61d89360292512a9ec939f8e,Mansion Beach,41.201119,-71.56091
61d4c5b258d4169d9b937806,Green Hill,41.36425,-71.60114
5842041f4e65fad6a7708e40,Matunuck,41.373347,-71.53876
640a4459b6d7690016526562,Deep Hole,41.3725,-71.5351
640a445b99dd440b2d0460e4,Salty Brine State Beach,41.3751,-71.5116
640a4455b6d769837e526420,K38/39,41.367,-71.4947
5842041f4e65fad6a77089cb,Point Judith,41.362631366305415,-71.48006772942608
589a447b904aae00147f95e0,Point Judith North,41.374592978501475,-71.48096465854906
5fca8370b82226a61da839f2,Scarborough State Beach,41.38988,-71.47133
5842041f4e65fad6a77089cd,Monahan's - Narragansett,41.422678090954726,-71.45413
5842041f4e65fad6a770884e,Narragansett,41.434181432898335,-71.45312118111178
640a444fe9203027939f0775,Bailey's Beach,41.4557,-71.313
5842041f4e65fad6a77089ce,Ruggles - Newport,41.469,-71.293
5842041f4e65fad6a77089d0,First Beach,41.487408,-71.29017
5842041f4e65fad6a77089d4,Second Beach,41.48739647744607,-71.25723
640a44514eb375711f9589c5,Sakonnet,41.47362,-71.24786
61d4c98b58d4169c0d944096,South Shore Beach,41.4929,-71.1358
61d88f4b59bcde3d99bb60e2,Black Rock Point,41.145758,-71.59174
640a4440b6d7695492525f07,Scituate,42.1886,-70.715
640a444e4eb375aa349588f3,Rexhame,42.123718,-70.67765
640a444245190598ad9dd9a9,Green Harbor,42.0757,-70.645
640a44454eb375972b9586a2,Plymouth Beach,41.9435,-70.6243
640a444a99dd447726045c7e,Keyes Memorial Beach,41.6354,-70.2911
61d73b2c925f8bda3d46c4ed,South Beach State Park,41.349542,-70.53112
61d644140522854ffeb51b55,Madaket,41.270684,-70.20466
584204204e65fad6a77099a0,Nauset Beach,41.786593,-69.932929
5842041f4e65fad6a77089d2,Cape Cod,41.817,-69.935
584204204e65fad6a770999f,Coast Guard Beach,41.843765,-69.94229
584204204e65fad6a770999e,Nauset Light Beach,41.859,-69.948927
584204204e65fad6a77099a1,Marconi Beach,41.891853,-69.95944
640a4447606c4553d6b1cb3d,Maguire Landing Beach,41.9217,-69.9733
61ddc20189c49db1e4e6700a,Cahoon Hollow Beach,41.944362,-69.9839
5b294eab3e2942001a8a0b2a,Head of the Meadow Beach,42.056216952255454,-70.08507916548956
5842041f4e65fad6a7708e33,Long Point,41.34805,-70.63315
640a4443e92030d12d9f048c,Abels Hill,41.3422,-70.7076
61d73d1e59bcde7e237b4653,Lucy Vincent,41.339007,-70.72429
61d7420a5a373439bb747bea,Squibnocket,41.315015,-70.76408
640a444c451905ed699ddc2f,Chandy's,41.495,-71.04
61d6404c154e0ff2378bf9b5,Cisco,41.251667,-70.15372
640a44494eb375a470958784,Miacomet Rd.,41.24292,-70.11844
61d6421e39740602d9f571d5,Nobadeer,41.243801,-70.06894
5842041f4e65fad6a7708e34,Nantucket,41.24374,-70.05947
61d63cc9bfe591ed32800605,Madaquecham,41.242659,-70.04464
640a4437606c458192b1c79b,Salisbury,42.8421,-70.8149
631ce9f7e2e1e48237c69b66,Plum Island Point,42.7869,-70.80414
640a443f4eb375e8089584fc,Crane Beach,42.6862,-70.7662
640a443c45190559f09dd82a,Wingaersheek Beach,42.6501,-70.6842
640a4439606c45f9e6b1c7ff,Devereux,42.4911,-70.8569
5a1f05fa0f87fe001a0c70da,Good Harbor Beach,42.619686254291125,-70.63175
60492d724fa375a2d2c902f0,Cape Ann,42.6276,-70.617
5bda246253479f0001e1d7bb,Lynn Beach,42.467182901529426,-70.92082329494508
5a1ef708aa1aea001b27be37,Nahant Beach,42.442841200072706,-70.93894
640a443a99dd4448c804589b,Revere Beach,42.4202,-70.9853
59a5ee7d88c219001207e53a,Winthrop Jetty,42.370846966800535,-70.9670877456665
640a443d4eb37550f1958492,Yirrell Beach,42.3626,-70.9695
5842041f4e65fad6a77089d1,Nantasket Beach,42.27916830233153,-70.86498
5842041f4e65fad6a77089d3,Egypt Beach,42.22055448975661,-70.70634873403819
5842041f4e65fad6a77089d6,Straws Point,42.991359,-70.75149
60492e85f79634ecb8e7b0fa,Jenness Beach,42.9857,-70.7595
5842041f4e65fad6a77089da,Sawyer's Beach,42.97583846220203,-70.764
5842041f4e65fad6a77089db,Rye on the Rocks / 5-0's,42.97,-70.77
5842041f4e65fad6a77089d5,Fox Hill,42.964,-70.769
640a4436b6d7697a67525c94,Costellos,42.956,-70.7747
5842041f4e65fad6a77089d7,Plaice Cove,42.946,-70.786
5842041f4e65fad6a77089e9,The Wall ,42.9376373334092,-70.79141
5842041f4e65fad6a77089d9,The Main Beach,42.911574,-70.80831
5842041f4e65fad6a770884a,Seabrook,42.88678181061,-70.80843
640a443145190527e39dd5df,Harbor Beach,43.1322,-70.6367
5842041f4e65fad6a77089e3,Long Sands Beach,43.163135,-70.61689
5842041f4e65fad6a77089cf,Short Sands Beach,43.175394,-70.606351
5842041f4e65fad6a77089ca,Ogunquit,43.251076,-70.59144
640a4432e92030483f9f00cd,Footbridge Beach,43.2629,-70.5867
5bda1f9f815c8500017022bf,Moody Point,43.284112046429236,-70.56734
640a4434606c451546b1c6fc,Crescent Beach,43.2938,-70.5676
5842041f4e65fad6a77089dd,Wells Beach,43.302676,-70.5652
640a442b451905e7249dd43f,Drakes Island,43.3213,-70.5533
640a442e4eb375739695814e,Mother's Beach,43.3434,-70.4984
5842041f4e65fad6a77089e0,Gooch's Beach,43.34711,-70.48165
584204214e65fad6a7709c6f,Fortunes Rock,43.429,-70.372
5842041f4e65fad6a77089df,Old Orchard Beach,43.514481,-70.372146
640a442f451905324d9dd57e,Pine Point Beach,43.5404,-70.3331
5842041f4e65fad6a77089de,Scarborough Beach State Park,43.545359,-70.30479
5842041f4e65fad6a77089dc,Higgins Beach,43.55902946610303,-70.27795
60de448419d6ca0f4751428b,Kettle Kove,43.561068973577115,-70.2178
584204204e65fad6a77099d6,Popham Beach,43.729,-69.797
640a44294eb37563ad957fe3,Reid State Park,43.7776,-69.7272
6418e4266478f0ce81fb1b22,Little Hunters Beach,44.2979,-68.2116
584204204e65fad6a77099fc,Acadia National Park,44.314,-68.183
640a3963e920304ae99c3d18,Deep Cove Beach,44.6154,-66.8754
640a394eb6d769d1114f90cf,Mavillette Beach,44.0839,-66.1911
584204204e65fad6a77094cc,Summerville,43.9469,-64.8153
640a3950b6d7691efa4f9198,Sandy Cove Beach,44.4966,-66.103
640a3948606c459c16aefb85,White Point,43.9643,-64.7352
584204204e65fad6a77094ce,Western Head,43.985,-64.68
584204204e65fad6a7709abe,Cherry Hill,44.139,-64.509
640a394cb6d769299e4f9039,Broad Cove,44.1775,-64.4743
584204204e65fad6a7709abd,Hirtles,44.261,-64.272
584204204e65fad6a77094cb,The Moose,44.61383,-63.43175
5842041f4e65fad6a7708db2,Osbourne,44.61774,-63.417031
5842041f4e65fad6a7708dbb,Minutes,44.632158,-63.415339
584204204e65fad6a77096b0,Lawrencetown Point,44.64182138045019,-63.35122
584204204e65fad6a77094cf,Lawrencetown Beach,44.643,-63.343
584204204e65fad6a77096b5,Left Point,44.639,-63.325
5842041f4e65fad6a7708db1,Right Point,44.657329,-63.25684
5842041f4e65fad6a7708daf,The Cove,44.66404,-63.25845
5842041f4e65fad6a7708db0,Martinique,44.689901957432156,-63.13179
640a394a99dd44e492018c12,Clam Harbour Beach,44.721,-62.8856
6418e43893265b32e3190354,Meudon Beach,40.902,-73.6034
6418e43d9702723cf8880d75,Historic Park Fishing Beach,40.9409,-73.4745
584204204e65fad6a77095a8,Presqu'ile Point,43.996963,-77.67719
584204204e65fad6a77095a9,Consecon North Beach,43.956092,-77.527216
584204204e65fad6a77095ab,Sandbanks Park,43.901037,-77.28545
584204204e65fad6a7709590,Patterson Park,44.208896,-76.56262
584204204e65fad6a770958f,MacDonald Park,44.220997,-76.490636
584204204e65fad6a7709591,Wolfe Island,44.110875,-76.45068
640a2d26e92030262f992665,Hanlans Point Beach,43.6212,-79.3962
640a2d2599dd44cb41fe7b20,Cherry Beach,43.6357,-79.344
584204204e65fad6a770959a,Niagra Shores Park,43.266062,-79.056281
584204204e65fad6a770959b,Wilson-Tuscarora State Park,43.31259,-78.851745
640a2d234eb37567f28fa638,Olcott Beach,43.3395,-78.7131
584204204e65fad6a770959c,Hamlin Beach,43.365833,-77.955933
584204204e65fad6a7709599,Ontario Beach,43.261024,-77.60842
584204204e65fad6a7709598,Durand Eastman Beach,43.243443,-77.568845
584204204e65fad6a7709597,Webster Park,43.26137,-77.45145
584204204e65fad6a7709595,Sodus Point,43.27416,-76.97938
584204204e65fad6a7709596,Fair Haven,43.34533,-76.697271
584204204e65fad6a7709594,Selkirk Shores,43.550863,-76.214974
584204204e65fad6a7709593,Brennans Beach,43.6829,-76.20169
584204204e65fad6a7709592,Southwicks,43.76672,-76.21795
584204204e65fad6a770959f,Van Wagners Beach,43.261922,-79.766975
584204204e65fad6a77095a1,Jack Darling Park,43.525369,-79.6016
584204204e65fad6a77095a2,Ashbridges Bay,43.661913,-79.30499
584204204e65fad6a77095a0,50 Road Beach,43.206984,-79.562318
584204204e65fad6a770959e,Port Dalhousie,43.204654,-79.266651
584204204e65fad6a770959d,St. Catherine's Beach,43.228702,-79.195485
584204204e65fad6a77095a3,Bluffers Park,43.703402,-79.23561
584204204e65fad6a77095a4,Cathedral Bluffs,43.714406,-79.22452
584204204e65fad6a77095a6,Rogue Rivermouth,43.790261,-79.11912
584204204e65fad6a77095a5,Frenchman's Bay,43.811773,-79.091
584204204e65fad6a77095a7,Darlington Park,43.868839,-78.786213
584204204e65fad6a7709523,Lake Erie State Park,42.425041,-79.435123
584204204e65fad6a7709522,Gratiot Point,42.49396,-79.35544
584204204e65fad6a7709521,Evangola,42.609152,-79.113106
584204204e65fad6a7709520,Point Breeze,42.630074,-79.09336
584204204e65fad6a770951f,Bennett Beach,42.65829,-79.064062
584204204e65fad6a7709526,Wendt Beach,42.676756,-79.054209
584204204e65fad6a770951e,Hamburg Beach,42.764593,-78.88011
584204204e65fad6a770951c,Woodlawn,42.790157,-78.857254
584204204e65fad6a7709525,Presque Isle State Park,42.115625,-80.156725
61e2073a51944e645f142ef4,Stone Jetty,42.161137,-80.13096
61e20875d8e44b6c4e1f4e7e,Beach 11,42.162313,-80.07839
584204204e65fad6a7709524,Freeport,42.24236,-79.833447
584204204e65fad6a770953a,Seacliffe Beach,42.02855,-82.604857
584204204e65fad6a770953c,Point Pelee,41.907855,-82.508611
584204204e65fad6a770953b,Wheatley,42.083533,-82.443195
584204204e65fad6a770953d,Rondeau,42.273398,-81.840509
584204204e65fad6a770953e,Duttona  Beach,42.582766,-81.467348
584204204e65fad6a770953f,Port Bruce,42.652797,-81.009073
584204204e65fad6a7709540,Port Burwell,42.642182,-80.805404
584204204e65fad6a7709542,Long Point (southwest beach),42.575691,-80.381766
584204204e65fad6a7709543,"Lake Erie Beach, Port Dover",42.782743,-80.202933
584204204e65fad6a7709541,Selkirk,42.818133,-79.921169
584204204e65fad6a7709544,South Cayuga,42.857395,-79.710174
584204204e65fad6a7709545,Rock Point,42.84642,-79.55596
584204204e65fad6a7709549,Nickel Beach,42.873302,-79.231389
584204204e65fad6a7709546,Wyldewood Beach,42.87133,-79.149261
584204204e65fad6a7709548,Pleasant Beach,42.863411,-79.12678
584204204e65fad6a770954a,Palmwood Point,42.858367,-79.059303
584204204e65fad6a7709571,Sauble Beach,44.629703,-81.273923
584204204e65fad6a7709573,Wasaga Beach,44.524398,-80.024614
584204204e65fad6a7709572,MacGregor Point,44.414386,-81.486851
584204204e65fad6a7709576,Kincardine,44.17798,-81.644085
584204204e65fad6a7709575,Goderich Salt Mines,43.739032,-81.728136
584204204e65fad6a770957f,Bayfield Harbor,43.56877,-81.708678
584204204e65fad6a7709579,Grand Bend,43.31448,-81.767509
584204204e65fad6a770957a,The Pinery,43.265805,-81.845253
584204204e65fad6a7709584,Ipperwash,43.22556,-81.938545
584204204e65fad6a7709577,Kettle Point,43.18317,-82.02318
584204204e65fad6a7709578,Canatara Beach,43.00558,-82.40726
584204204e65fad6a7709539,Sterling State Park,41.90971,-83.331182
584204204e65fad6a7709537,Toledo Beach,41.83313,-83.407476
584204204e65fad6a7709538,Luna Pier,41.808687,-83.44068
584204204e65fad6a7709536,Catawba,41.544983,-82.883816
584204204e65fad6a7709535,Marblehead Light House,41.536474,-82.711068
584204204e65fad6a7709534,Cedar Point,41.480161,-82.676366
584204204e65fad6a7709533,Nickel Plate Beach,41.394697,-82.539399
584204204e65fad6a7709532,Vermilion Main Street Beach,41.425768,-82.365637
584204204e65fad6a7709531,Avon Lake,41.499068,-82.078337
584204204e65fad6a7709530,Bay Village-Huntington Beach,41.491441,-81.934617
584204204e65fad6a770952f,Edgewater/Pinched Loaf,41.489086,-81.74159
584204204e65fad6a770952e,Euclid Beach,41.582434,-81.57145
584204204e65fad6a770952c,Metropark,41.638683,-81.479536
584204204e65fad6a770952d,Overlook Beach Park,41.712574,-81.378394
584204204e65fad6a770952b,Headlands Beach,41.758672,-81.291214
584204204e65fad6a770952a,Geneva/Chestnut Beach,41.863739,-80.930637
584204204e65fad6a7709529,Saybrook,41.877709,-80.87796
584204204e65fad6a7709528,Walnut Beach,41.902768,-80.809006
584204204e65fad6a7709527,Conneaut Lighthouse Park,41.96552,-80.564166
640a2d1fe920300e6c9924d2,Port Maitland,42.85725,-79.58392
640a2d1c451905ffa097f6ca,Reebs Bay,42.8776,-79.3037
640a2d1e99dd444b19fe7982,Point Abino,42.8441,-79.1003
584204204e65fad6a7709587,Harrisville,44.64546,-83.29504
584204204e65fad6a7709586,Oscoda Beach Park,44.48698,-83.31665
584204204e65fad6a7709585,Tawas Point,44.24627,-83.456602
584204204e65fad6a7709580,Albert Sleeper State Park,43.98299,-83.208041
584204204e65fad6a7709583,Bay City Beach,43.67366,-83.90739
584204204e65fad6a7709582,Oak Beach,43.99913,-83.12593
584204204e65fad6a770957e,Port Crescent State Park,44.00224,-83.07329
584204204e65fad6a7709581,Forester,43.499324,-82.5655
584204204e65fad6a770957d,Lexington,43.26207,-82.5262
640a2d21451905287897f80f,Lakeport,43.1264,-82.4917
584204204e65fad6a770957c,Lakeside Park,43.02074,-82.427703
584204204e65fad6a77094e1,Ludington State Park,44.030404,-86.508842
584204204e65fad6a77094e3,Charles Mears State Park,43.796633,-86.436163
584204204e65fad6a77094e2,Silver Lake,43.655288,-86.541582
584204204e65fad6a77094e4,White Lake Channel,43.376235,-86.428906
584204204e65fad6a77094e5,Duck Lake,43.339428,-86.408504
584204204e65fad6a77094e6,Pioneer Park,43.280503,-86.373022
